,address,street_name,street_type,street_quad,house_number,address_type,longitude,latitude,location,point,:@computed_region_4a3i_ccfj,:@computed_region_4b54_tmc4,:@computed_region_kxmf_bzkv,:@computed_region_hq2j_w7j9,:@computed_region_p8tp_5dkv,house_alpha
0,5532 DALWOOD WY NW,DALWOOD,WY,NW,5532,Parcel,-114.16274336722893,51.114108633701804,"{'latitude': '51.114108633701804', 'longitude': '-114.16274336722893', 'human_address': '{""address"": """", ""city"": """", ""state"": """", ""zip"": """"}'}","{'type': 'Point', 'coordinates': [-114.16274336722893, 51.114108633701804]}",2,7,38,260,4,
1,321 MAGNOLIA HE SE,MAGNOLIA,HE,SE,321,Parcel,-113.91484799318039,50.891335034304355,"{'latitude': '50.891335034304355', 'longitude': '-113.91484799318039', 'human_address': '{""address"": """", ""city"": """", ""state"": """", ""zip"": """"}'}","{'type': 'Point', 'coordinates': [-113.91484799318039, 50.891335034304355]}",3,4,116,258,8,
2,165 CRANFIELD GR SE,CRANFIELD,GR,SE,165,Parcel,-113.98117686841111,50.88836183031347,"{'latitude': '50.88836183031347', 'longitude': '-113.98117686841111', 'human_address': '{""address"": """", ""city"": """", ""state"": """", ""zip"": """"}'}","{'type': 'Point', 'coordinates': [-113.98117686841111, 50.88836183031347]}",3,4,294,82,8,
3,2 SAGE VALLEY ME NW,SAGE VALLEY,ME,NW,2,Parcel,-114.15043875308373,51.178208654570426,"{'latitude': '51.178208654570426', 'longitude': '-114.15043875308373', 'human_address': '{""address"": """", ""city"": """", ""state"": """", ""zip"": """"}'}","{'type': 'Point', 'coordinates': [-114.15043875308373, 51.178208654570426]}",2,3,265,169,10,
4,714 12 ST SE,12,ST,SE,714,Parcel,-114.03128504301664,51.0419284690263,"{'latitude': '51.0419284690263', 'longitude': '-114.03128504301664', 'human_address': '{""address"": """", ""city"": """", ""state"": """", ""zip"": """"}'}","{'type': 'Point', 'coordinates': [-114.03128504301664, 51.0419284690263]}",3,10,54,54,11,
5,103 DEERMONT WY SE,DEERMONT,WY,SE,103,Parcel,-114.0189778287356,50.92806426764464,"{'latitude': '50.92806426764464', 'longitude': '-114.0189778287356', 'human_address': '{""address"": """", ""city"": """", ""state"": """", ""zip"": """"}'}","{'type': 'Point', 'coordinates': [-114.0189778287356, 50.92806426764464]}",3,6,151,255,13,
6,56 TEMPLEGREEN RD NE,TEMPLEGREEN,RD,NE,56,Parcel,-113.9410012253191,51.08688066663724,"{'latitude': '51.08688066663724', 'longitude': '-113.9410012253191', 'human_address': '{""address"": """", ""city"": """", ""state"": """", ""zip"": """"}'}","{'type': 'Point', 'coordinates': [-113.9410012253191, 51.08688066663724]}",4,9,22,237,3,
7,294 MAHOGANY PL SE,MAHOGANY,PL,SE,294,Parcel,-113.92868579137446,50.9005500311767,"{'latitude': '50.9005500311767', 'longitude': '-113.92868579137446', 'human_address': '{""address"": """", ""city"": """", ""state"": """", ""zip"": """"}'}","{'type': 'Point', 'coordinates': [-113.92868579137446, 50.9005500311767]}",3,4,116,258,8,
8,59 SANDPIPER WY NW,SANDPIPER,WY,NW,59,Parcel,-114.09578716715303,51.1392207119003,"{'latitude': '51.1392207119003', 'longitude': '-114.09578716715303', 'human_address': '{""address"": """", ""city"": """", ""state"": """", ""zip"": """"}'}","{'type': 'Point', 'coordinates': [-114.09578716715303, 51.1392207119003]}",2,2,270,121,4,
9,1925 10A ST SW,10A,ST,SW,1925,Parcel,-114.08873594641551,51.035155430531184,"{'latitude': '51.035155430531184', 'longitude': '-114.08873594641551', 'human_address': '{""address"": """", ""city"": """", ""state"": """", ""zip"": """"}'}","{'type': 'Point', 'coordinates': [-114.08873594641551, 51.035155430531184]}",1,14,271,185,2,
10,10463 CITYSCAPE DR NE,CITYSCAPE,DR,NE,10463,Parcel,-113.9660584026998,51.146261687313476,"{'latitude': '51.146261687313476', 'longitude': '-113.9660584026998', 'human_address': '{""address"": """", ""city"": """", ""state"": """", ""zip"": """"}'}","{'type': 'Point', 'coordinates': [-113.9660584026998, 51.146261687313476]}",4,11,176,99,1,
11,959 EVANSTON DR NW,EVANSTON,DR,NW,959,Parcel,-114.11402674129936,51.179845449038744,"{'latitude': '51.179845449038744', 'longitude': '-114.11402674129936', 'human_address': '{""address"": """", ""city"": """", ""state"": """", ""zip"": """"}'}","{'type': 'Point', 'coordinates': [-114.11402674129936, 51.179845449038744]}",2,3,237,92,10,
12,89 SUN CANYON WY SE,SUN CANYON,WY,SE,89,Parcel,-114.0296071766012,50.90500125451304,"{'latitude': '50.90500125451304', 'longitude': '-114.0296071766012', 'human_address': '{""address"": """", ""city"": """", ""state"": """", ""zip"": """"}'}","{'type': 'Point', 'coordinates': [-114.0296071766012, 50.90500125451304]}",3,6,52,128,13,
13,100 EDGELAND CR NW,EDGELAND,CR,NW,100,Parcel,-114.15827724681446,51.128784810489705,"{'latitude': '51.128784810489705', 'longitude': '-114.15827724681446', 'human_address': '{""address"": """", ""city"": """", ""state"": """", ""zip"": """"}'}","{'type': 'Point', 'coordinates': [-114.15827724681446, 51.128784810489705]}",2,2,272,59,4,
14,159 SCENIC HILL CL NW,SCENIC HILL,CL,NW,159,Parcel,-114.22141925967244,51.11723249644127,"{'latitude': '51.11723249644127', 'longitude': '-114.22141925967244', 'human_address': '{""address"": """", ""city"": """", ""state"": """", ""zip"": """"}'}","{'type': 'Point', 'coordinates': [-114.22141925967244, 51.11723249644127]}",2,13,148,48,9,
15,508 SAGE MEADOWS GD NW,SAGE MEADOWS,GD,NW,508,Parcel,-114.13231123213284,51.17468868228267,"{'latitude': '51.17468868228267', 'longitude': '-114.13231123213284', 'human_address': '{""address"": """", ""city"": """", ""state"": """", ""zip"": """"}'}","{'type': 'Point', 'coordinates': [-114.13231123213284, 51.17468868228267]}",2,3,265,169,10,
16,29 COVILLE GD NE,COVILLE,GD,NE,29,Parcel,-114.0417228948942,51.173084994023235,"{'latitude': '51.173084994023235', 'longitude': '-114.0417228948942', 'human_address': '{""address"": """", ""city"": """", ""state"": """", ""zip"": """"}'}","{'type': 'Point', 'coordinates': [-114.0417228948942, 51.173084994023235]}",4,11,251,8,12,
17,27 COVENTRY VW NE,COVENTRY,VW,NE,27,Parcel,-114.05330431717397,51.16244674819156,"{'latitude': '51.16244674819156', 'longitude': '-114.05330431717397', 'human_address': '{""address"": """", ""city"": """", ""state"": """", ""zip"": """"}'}","{'type': 'Point', 'coordinates': [-114.05330431717397, 51.16244674819156]}",4,11,251,8,12,
18,182 AUBURN CREST GR SE,AUBURN CREST,GR,SE,182,Parcel,-113.94592754200691,50.88553705199042,"{'latitude': '50.88553705199042', 'longitude': '-113.94592754200691', 'human_address': '{""address"": """", ""city"": """", ""state"": """", ""zip"": """"}'}","{'type': 'Point', 'coordinates': [-113.94592754200691, 50.88553705199042]}",3,4,95,217,8,
19,6415 DALTON DR NW,DALTON,DR,NW,6415,Parcel,-114.14786945199036,51.110263635416985,"{'latitude': '51.110263635416985', 'longitude': '-114.14786945199036', 'human_address': '{""address"": """", ""city"": """", ""state"": """", ""zip"": """"}'}","{'type': 'Point', 'coordinates': [-114.14786945199036, 51.110263635416985]}",2,7,38,260,4,
20,3827 PARKHILL ST SW,PARKHILL,ST,SW,3827,Parcel,-114.06446370321181,51.02081214811499,"{'latitude': '51.02081214811499', 'longitude': '-114.06446370321181', 'human_address': '{""address"": """", ""city"": """", ""state"": """", ""zip"": """"}'}","{'type': 'Point', 'coordinates': [-114.06446370321181, 51.02081214811499]}",1,10,60,276,5,
21,205 AUTUMN CI SE,AUTUMN,CI,SE,205,Parcel,-113.96762344857456,50.89823442768812,"{'latitude': '50.89823442768812', 'longitude': '-113.96762344857456', 'human_address': '{""address"": """", ""city"": """", ""state"": """", ""zip"": """"}'}","{'type': 'Point', 'coordinates': [-113.96762344857456, 50.89823442768812]}",3,4,95,217,8,
22,9260 OAKMOUNT DR SW,OAKMOUNT,DR,SW,9260,Parcel,-114.13996073670947,50.97244912451498,"{'latitude': '50.97244912451498', 'longitude': '-114.13996073670947', 'human_address': '{""address"": """", ""city"": """", ""state"": """", ""zip"": """"}'}","{'type': 'Point', 'coordinates': [-114.13996073670947, 50.97244912451498]}",1,8,217,155,5,
23,21 ASPEN RIDGE GA SW,ASPEN RIDGE,GA,SW,21,Parcel,-114.19538570533985,51.042052517338156,"{'latitude': '51.042052517338156', 'longitude': '-114.19538570533985', 'human_address': '{""address"": """", ""city"": """", ""state"": """", ""zip"": """"}'}","{'type': 'Point', 'coordinates': [-114.19538570533985, 51.042052517338156]}",1,1,48,284,14,
24,#3 347 TUSCANY ESTATES RI NW,TUSCANY ESTATES,RI,NW,347,Parcel,-114.256214098699,51.110229776075656,"{'latitude': '51.110229776075656', 'longitude': '-114.256214098699', 'human_address': '{""address"": """", ""city"": """", ""state"": """", ""zip"": """"}'}","{'type': 'Point', 'coordinates': [-114.256214098699, 51.110229776075656]}",2,13,158,107,9,
25,25 ARBOUR CREST WY NW,ARBOUR CREST,WY,NW,25,Parcel,-114.20394476473425,51.13694233422519,"{'latitude': '51.13694233422519', 'longitude': '-114.20394476473425', 'human_address': '{""address"": """", ""city"": """", ""state"": """", ""zip"": """"}'}","{'type': 'Point', 'coordinates': [-114.20394476473425, 51.13694233422519]}",2,3,244,173,10,
26,912 18 ST NE,18,ST,NE,912,Parcel,-114.01595385326206,51.060023646437934,"{'latitude': '51.060023646437934', 'longitude': '-114.01595385326206', 'human_address': '{""address"": """", ""city"": """", ""state"": """", ""zip"": """"}'}","{'type': 'Point', 'coordinates': [-114.01595385326206, 51.060023646437934]}",4,12,140,249,3,
27,92 EDGEBROOK PT NW,EDGEBROOK,PT,NW,92,Parcel,-114.12719421744241,51.13202219095467,"{'latitude': '51.13202219095467', 'longitude': '-114.12719421744241', 'human_address': '{""address"": """", ""city"": """", ""state"": """", ""zip"": """"}'}","{'type': 'Point', 'coordinates': [-114.12719421744241, 51.13202219095467]}",2,2,272,59,4,
28,312 RIVERVIEW CL SE,RIVERVIEW,CL,SE,312,Parcel,-114.01587522243354,50.96940367661958,"{'latitude': '50.96940367661958', 'longitude': '-114.01587522243354', 'human_address': '{""address"": """", ""city"": """", ""state"": """", ""zip"": """"}'}","{'type': 'Point', 'coordinates': [-114.01587522243354, 50.96940367661958]}",3,10,19,234,8,
29,290 TUSSLEWOOD TC NW,TUSSLEWOOD,TC,NW,290,Parcel,-114.24963655670403,51.138695545336546,"{'latitude': '51.138695545336546', 'longitude': '-114.24963655670403', 'human_address': '{""address"": """", ""city"": """", ""state"": """", ""zip"": """"}'}","{'type': 'Point', 'coordinates': [-114.24963655670403, 51.138695545336546]}",2,13,158,107,9,
30,818 17 AV NW,17,AV,NW,818,Parcel,-114.07995366053586,51.06797998876471,"{'latitude': '51.06797998876471', 'longitude': '-114.07995366053586', 'human_address': '{""address"": """", ""city"": """", ""state"": """", ""zip"": """"}'}","{'type': 'Point', 'coordinates': [-114.07995366053586, 51.06797998876471]}",2,7,17,256,7,
31,503 RANCHVIEW PL NW,RANCHVIEW,PL,NW,503,Parcel,-114.18693575837102,51.115417159931944,"{'latitude': '51.115417159931944', 'longitude': '-114.18693575837102', 'human_address': '{""address"": """", ""city"": """", ""state"": """", ""zip"": """"}'}","{'type': 'Point', 'coordinates': [-114.18693575837102, 51.115417159931944]}",2,3,245,174,10,
32,71 SKYVIEW POINT TC NE,SKYVIEW POINT,TC,NE,71,Parcel,-113.9532478499633,51.16046527714098,"{'latitude': '51.16046527714098', 'longitude': '-113.9532478499633', 'human_address': '{""address"": """", ""city"": """", ""state"": """", ""zip"": """"}'}","{'type': 'Point', 'coordinates': [-113.9532478499633, 51.16046527714098]}",4,11,12,132,1,
33,23 HARVEST GOLD PL NE,HARVEST GOLD,PL,NE,23,Parcel,-114.06424471836485,51.14254089293574,"{'latitude': '51.14254089293574', 'longitude': '-114.06424471836485', 'human_address': '{""address"": """", ""city"": """", ""state"": """", ""zip"": """"}'}","{'type': 'Point', 'coordinates': [-114.06424471836485, 51.14254089293574]}",4,11,27,241,12,
34,768 SOMERSET DR SW,SOMERSET,DR,SW,768,Parcel,-114.08263616839152,50.896656880665915,"{'latitude': '50.896656880665915', 'longitude': '-114.08263616839152', 'human_address': '{""address"": """", ""city"": """", ""state"": """", ""zip"": """"}'}","{'type': 'Point', 'coordinates': [-114.08263616839152, 50.896656880665915]}",1,5,55,125,6,
35,22 BRIDLERANGE CI SW,BRIDLERANGE,CI,SW,22,Parcel,-114.11405288404754,50.90248952504849,"{'latitude': '50.90248952504849', 'longitude': '-114.11405288404754', 'human_address': '{""address"": """", ""city"": """", ""state"": """", ""zip"": """"}'}","{'type': 'Point', 'coordinates': [-114.11405288404754, 50.90248952504849]}",1,5,138,283,6,
36,7008 FARRELL RD SE,FARRELL,RD,SE,7008,Parcel,-114.0600197159154,50.99216130218698,"{'latitude': '50.99216130218698', 'longitude': '-114.0600197159154', 'human_address': '{""address"": """", ""city"": """", ""state"": """", ""zip"": """"}'}","{'type': 'Point', 'coordinates': [-114.0600197159154, 50.99216130218698]}",3,10,76,181,11,
37,#120 300 EVANSCREEK CO NW,EVANSCREEK,CO,NW,300,Parcel,-114.11925319611757,51.16630199330978,"{'latitude': '51.16630199330978', 'longitude': '-114.11925319611757', 'human_address': '{""address"": """", ""city"": """", ""state"": """", ""zip"": """"}'}","{'type': 'Point', 'coordinates': [-114.11925319611757, 51.16630199330978]}",2,3,237,92,10,
38,3559 DOUGLAS WOODS HT SE,DOUGLAS WOODS,HT,SE,3559,Parcel,-113.98886324074326,50.94573039611667,"{'latitude': '50.94573039611667', 'longitude': '-113.98886324074326', 'human_address': '{""address"": """", ""city"": """", ""state"": """", ""zip"": """"}'}","{'type': 'Point', 'coordinates': [-113.98886324074326, 50.94573039611667]}",3,4,268,124,13,
39,193 EVANSGLEN DR NW,EVANSGLEN,DR,NW,193,Parcel,-114.09548932055478,51.177569717002136,"{'latitude': '51.177569717002136', 'longitude': '-114.09548932055478', 'human_address': '{""address"": """", ""city"": """", ""state"": """", ""zip"": """"}'}","{'type': 'Point', 'coordinates': [-114.09548932055478, 51.177569717002136]}",2,3,237,92,10,
40,59 WOOD VALLEY ME SW,WOOD VALLEY,ME,SW,59,Parcel,-114.13400670324357,50.93958915817431,"{'latitude': '50.93958915817431', 'longitude': '-114.13400670324357', 'human_address': '{""address"": """", ""city"": """", ""state"": """", ""zip"": """"}'}","{'type': 'Point', 'coordinates': [-114.13400670324357, 50.93958915817431]}",1,5,43,288,6,
41,8951 46 ST NE,46,ST,NE,8951,Parcel,-113.96605051828426,51.13347399855702,"{'latitude': '51.13347399855702', 'longitude': '-113.96605051828426', 'human_address': '{""address"": """", ""city"": """", ""state"": """", ""zip"": """"}'}","{'type': 'Point', 'coordinates': [-113.96605051828426, 51.13347399855702]}",4,11,2,143,1,
42,220 CEDARGROVE CO SW,CEDARGROVE,CO,SW,220,Parcel,-114.1229565245129,50.95169091082072,"{'latitude': '50.95169091082072', 'longitude': '-114.1229565245129', 'human_address': '{""address"": """", ""city"": """", ""state"": """", ""zip"": """"}'}","{'type': 'Point', 'coordinates': [-114.1229565245129, 50.95169091082072]}",1,8,126,270,5,
43,66 EVANSPARK TC NW,EVANSPARK,TC,NW,66,Parcel,-114.11215925567508,51.17055213789789,"{'latitude': '51.17055213789789', 'longitude': '-114.11215925567508', 'human_address': '{""address"": """", ""city"": """", ""state"": """", ""zip"": """"}'}","{'type': 'Point', 'coordinates': [-114.11215925567508, 51.17055213789789]}",2,3,237,92,10,
44,415 4 AV NE,4,AV,NE,415,Parcel,-114.0534697704889,51.056045264547315,"{'latitude': '51.056045264547315', 'longitude': '-114.0534697704889', 'human_address': '{""address"": """", ""city"": """", ""state"": """", ""zip"": """"}'}","{'type': 'Point', 'coordinates': [-114.0534697704889, 51.056045264547315]}",4,7,266,120,7,
45,54 SIENNA PARK GV SW,SIENNA PARK,GV,SW,54,Parcel,-114.18353933582857,51.026591356357926,"{'latitude': '51.026591356357926', 'longitude': '-114.18353933582857', 'human_address': '{""address"": """", ""city"": """", ""state"": """", ""zip"": """"}'}","{'type': 'Point', 'coordinates': [-114.18353933582857, 51.026591356357926]}",1,1,278,65,14,
46,2526 11 AV NW,11,AV,NW,2526,Parcel,-114.12079638395706,51.06098814508394,"{'latitude': '51.06098814508394', 'longitude': '-114.12079638395706', 'human_address': '{""address"": """", ""city"": """", ""state"": """", ""zip"": """"}'}","{'type': 'Point', 'coordinates': [-114.12079638395706, 51.06098814508394]}",2,7,154,103,7,
47,37 RUNDLELAWN CL NE,RUNDLELAWN,CL,NE,37,Parcel,-113.97692161532852,51.080710249921765,"{'latitude': '51.080710249921765', 'longitude': '-113.97692161532852', 'human_address': '{""address"": """", ""city"": """", ""state"": """", ""zip"": """"}'}","{'type': 'Point', 'coordinates': [-113.97692161532852, 51.080710249921765]}",4,9,34,291,3,
48,112 VALLEY POINTE PL NW,VALLEY POINTE,PL,NW,112,Parcel,-114.27004089610527,51.09118300859547,"{'latitude': '51.09118300859547', 'longitude': '-114.27004089610527', 'human_address': '{""address"": """", ""city"": """", ""state"": """", ""zip"": """"}'}","{'type': 'Point', 'coordinates': [-114.27004089610527, 51.09118300859547]}",2,13,47,175,9,
49,8420 BERWICK RD NW,BERWICK,RD,NW,8420,Parcel,-114.0897288647475,51.128890041635124,"{'latitude': '51.128890041635124', 'longitude': '-114.0897288647475', 'human_address': '{""address"": """", ""city"": """", ""state"": """", ""zip"": """"}'}","{'type': 'Point', 'coordinates': [-114.0897288647475, 51.128890041635124]}",2,2,273,60,4,
50,214 NEW BRIGHTON WK SE,NEW BRIGHTON,WK,SE,214,Parcel,-113.93476692732985,50.92158105946072,"{'latitude': '50.92158105946072', 'longitude': '-113.93476692732985', 'human_address': '{""address"": """", ""city"": """", ""state"": """", ""zip"": """"}'}","{'type': 'Point', 'coordinates': [-113.93476692732985, 50.92158105946072]}",3,4,139,247,8,
51,158 SADDLEMEAD GR NE,SADDLEMEAD,GR,NE,158,Parcel,-113.94405662922664,51.13141625064666,"{'latitude': '51.13141625064666', 'longitude': '-113.94405662922664', 'human_address': '{""address"": """", ""city"": """", ""state"": """", ""zip"": """"}'}","{'type': 'Point', 'coordinates': [-113.94405662922664, 51.13141625064666]}",4,11,2,143,1,
52,116 HUNTWELL RD NE,HUNTWELL,RD,NE,116,Parcel,-114.05147140671515,51.11806713308279,"{'latitude': '51.11806713308279', 'longitude': '-114.05147140671515', 'human_address': '{""address"": """", ""city"": """", ""state"": """", ""zip"": """"}'}","{'type': 'Point', 'coordinates': [-114.05147140671515, 51.11806713308279]}",4,2,261,158,4,
53,23 CORNERSTONE CI NE,CORNERSTONE,CI,NE,23,Parcel,-113.93975901846115,51.16269750747427,"{'latitude': '51.16269750747427', 'longitude': '-113.93975901846115', 'human_address': '{""address"": """", ""city"": """", ""state"": """", ""zip"": """"}'}","{'type': 'Point', 'coordinates': [-113.93975901846115, 51.16269750747427]}",4,11,11,133,1,
54,166 COVERTON CI NE,COVERTON,CI,NE,166,Parcel,-114.04035006505515,51.164926828496526,"{'latitude': '51.164926828496526', 'longitude': '-114.04035006505515', 'human_address': '{""address"": """", ""city"": """", ""state"": """", ""zip"": """"}'}","{'type': 'Point', 'coordinates': [-114.04035006505515, 51.164926828496526]}",4,11,251,8,12,
55,27 HUNTSTROM PL NE,HUNTSTROM,PL,NE,27,Parcel,-114.05290912727509,51.12300936922873,"{'latitude': '51.12300936922873', 'longitude': '-114.05290912727509', 'human_address': '{""address"": """", ""city"": """", ""state"": """", ""zip"": """"}'}","{'type': 'Point', 'coordinates': [-114.05290912727509, 51.12300936922873]}",4,2,261,158,4,
56,2033 46 AV SW,46,AV,SW,2033,Parcel,-114.10817479257933,51.012313617981825,"{'latitude': '51.012313617981825', 'longitude': '-114.10817479257933', 'human_address': '{""address"": """", ""city"": """", ""state"": """", ""zip"": """"}'}","{'type': 'Point', 'coordinates': [-114.10817479257933, 51.012313617981825]}",1,8,200,267,2,
57,19 SCENIC COVE PL NW,SCENIC COVE,PL,NW,19,Parcel,-114.20563890157916,51.119949623261014,"{'latitude': '51.119949623261014', 'longitude': '-114.20563890157916', 'human_address': '{""address"": """", ""city"": """", ""state"": """", ""zip"": """"}'}","{'type': 'Point', 'coordinates': [-114.20563890157916, 51.119949623261014]}",2,13,148,48,9,
58,443 RUNDLELAWN WY NE,RUNDLELAWN,WY,NE,443,Parcel,-113.97704196898077,51.07644131690358,"{'latitude': '51.07644131690358', 'longitude': '-113.97704196898077', 'human_address': '{""address"": """", ""city"": """", ""state"": """", ""zip"": """"}'}","{'type': 'Point', 'coordinates': [-113.97704196898077, 51.07644131690358]}",4,9,34,291,3,
59,75 PANATELLA VW NW,PANATELLA,VW,NW,75,Parcel,-114.0766805945162,51.16738706557763,"{'latitude': '51.16738706557763', 'longitude': '-114.0766805945162', 'human_address': '{""address"": """", ""city"": """", ""state"": """", ""zip"": """"}'}","{'type': 'Point', 'coordinates': [-114.0766805945162, 51.16738706557763]}",2,11,235,95,12,
60,506 34 AV NE,34,AV,NE,506,Parcel,-114.05185638420905,51.08335487851295,"{'latitude': '51.08335487851295', 'longitude': '-114.05185638420905', 'human_address': '{""address"": """", ""city"": """", ""state"": """", ""zip"": """"}'}","{'type': 'Point', 'coordinates': [-114.05185638420905, 51.08335487851295]}",4,10,88,202,4,
61,2006 30 AV SW,30,AV,SW,2006,Parcel,-114.10743387826788,51.026865897855,"{'latitude': '51.026865897855', 'longitude': '-114.10743387826788', 'human_address': '{""address"": """", ""city"": """", ""state"": """", ""zip"": """"}'}","{'type': 'Point', 'coordinates': [-114.10743387826788, 51.026865897855]}",1,14,207,63,2,
62,2107 BRIGHTONCREST CM SE,BRIGHTONCREST,CM,SE,2107,Parcel,-113.94362348390263,50.92505578104915,"{'latitude': '50.92505578104915', 'longitude': '-113.94362348390263', 'human_address': '{""address"": """", ""city"": """", ""state"": """", ""zip"": """"}'}","{'type': 'Point', 'coordinates': [-113.94362348390263, 50.92505578104915]}",3,4,139,247,8,
63,1829 27 AV SW,27,AV,SW,1829,Parcel,-114.10380869874298,51.02939529736165,"{'latitude': '51.02939529736165', 'longitude': '-114.10380869874298', 'human_address': '{""address"": """", ""city"": """", ""state"": """", ""zip"": """"}'}","{'type': 'Point', 'coordinates': [-114.10380869874298, 51.02939529736165]}",1,14,207,63,2,
64,5603 RUNDLEHORN DR NE,RUNDLEHORN,DR,NE,5603,Parcel,-113.95369333418898,51.071460054938974,"{'latitude': '51.071460054938974', 'longitude': '-113.95369333418898', 'human_address': '{""address"": """", ""city"": """", ""state"": """", ""zip"": """"}'}","{'type': 'Point', 'coordinates': [-113.95369333418898, 51.071460054938974]}",4,9,36,294,3,
65,90 BRIGHTONSTONE PS SE,BRIGHTONSTONE,PS,SE,90,Parcel,-113.94811729494288,50.922275654327244,"{'latitude': '50.922275654327244', 'longitude': '-113.94811729494288', 'human_address': '{""address"": """", ""city"": """", ""state"": """", ""zip"": """"}'}","{'type': 'Point', 'coordinates': [-113.94811729494288, 50.922275654327244]}",3,4,139,247,8,
66,19 STRATHCONA PL SW,STRATHCONA,PL,SW,19,Parcel,-114.16959507206387,51.04619735014249,"{'latitude': '51.04619735014249', 'longitude': '-114.16959507206387', 'human_address': '{""address"": """", ""city"": """", ""state"": """", ""zip"": """"}'}","{'type': 'Point', 'coordinates': [-114.16959507206387, 51.04619735014249]}",1,1,67,20,14,
67,71 ROYAL OAK PT NW,ROYAL OAK,PT,NW,71,Parcel,-114.23107488609013,51.14912216419821,"{'latitude': '51.14912216419821', 'longitude': '-114.23107488609013', 'human_address': '{""address"": """", ""city"": """", ""state"": """", ""zip"": """"}'}","{'type': 'Point', 'coordinates': [-114.23107488609013, 51.14912216419821]}",2,3,252,13,9,
68,77 DOUGLASDALE CR SE,DOUGLASDALE,CR,SE,77,Parcel,-113.98679463356831,50.93353430820052,"{'latitude': '50.93353430820052', 'longitude': '-113.98679463356831', 'human_address': '{""address"": """", ""city"": """", ""state"": """", ""zip"": """"}'}","{'type': 'Point', 'coordinates': [-113.98679463356831, 50.93353430820052]}",3,4,268,124,13,
69,19 CORNERSTONE AV NE,CORNERSTONE,AV,NE,19,Parcel,-113.94604700115147,51.16079479122833,"{'latitude': '51.16079479122833', 'longitude': '-113.94604700115147', 'human_address': '{""address"": """", ""city"": """", ""state"": """", ""zip"": """"}'}","{'type': 'Point', 'coordinates': [-113.94604700115147, 51.16079479122833]}",4,11,11,133,1,
70,29 CRESTHAVEN WY SW,CRESTHAVEN,WY,SW,29,Parcel,-114.26449401502482,51.08513721522815,"{'latitude': '51.08513721522815', 'longitude': '-114.26449401502482', 'human_address': '{""address"": """", ""city"": """", ""state"": """", ""zip"": """"}'}","{'type': 'Point', 'coordinates': [-114.26449401502482, 51.08513721522815]}",1,13,31,248,9,
71,1732 14 AV SW,14,AV,SW,1732,Parcel,-114.1013625386996,51.04072113267175,"{'latitude': '51.04072113267175', 'longitude': '-114.1013625386996', 'human_address': '{""address"": """", ""city"": """", ""state"": """", ""zip"": """"}'}","{'type': 'Point', 'coordinates': [-114.1013625386996, 51.04072113267175]}",1,14,136,235,2,
72,230 MYSTIC RIDGE PA SW,MYSTIC RIDGE,PA,SW,230,Parcel,-114.20677705948368,51.028669641103505,"{'latitude': '51.028669641103505', 'longitude': '-114.20677705948368', 'human_address': '{""address"": """", ""city"": """", ""state"": """", ""zip"": """"}'}","{'type': 'Point', 'coordinates': [-114.20677705948368, 51.028669641103505]}",1,1,289,22,14,
73,28 COUNTRY VILLAGE MR NE,COUNTRY VILLAGE,MR,NE,28,Parcel,-114.05712162773737,51.16122904658562,"{'latitude': '51.16122904658562', 'longitude': '-114.05712162773737', 'human_address': '{""address"": """", ""city"": """", ""state"": """", ""zip"": """"}'}","{'type': 'Point', 'coordinates': [-114.05712162773737, 51.16122904658562]}",4,11,264,112,12,
74,117 SCENIC RIDGE CR NW,SCENIC RIDGE,CR,NW,117,Parcel,-114.21946437305276,51.10875852713417,"{'latitude': '51.10875852713417', 'longitude': '-114.21946437305276', 'human_address': '{""address"": """", ""city"": """", ""state"": """", ""zip"": """"}'}","{'type': 'Point', 'coordinates': [-114.21946437305276, 51.10875852713417]}",2,13,148,48,9,
75,32 MARTINGROVE ME NE,MARTINGROVE,ME,NE,32,Parcel,-113.95072579670894,51.11179045343505,"{'latitude': '51.11179045343505', 'longitude': '-113.95072579670894', 'human_address': '{""address"": """", ""city"": """", ""state"": """", ""zip"": """"}'}","{'type': 'Point', 'coordinates': [-113.95072579670894, 51.11179045343505]}",4,9,180,184,1,
76,23 NOLANCREST MR NW,NOLANCREST,MR,NW,23,Parcel,-114.16915160597044,51.17728414326003,"{'latitude': '51.17728414326003', 'longitude': '-114.16915160597044', 'human_address': '{""address"": """", ""city"": """", ""state"": """", ""zip"": """"}'}","{'type': 'Point', 'coordinates': [-114.16915160597044, 51.17728414326003]}",2,3,188,188,10,
77,45 RED EMBERS RO NE,RED EMBERS,RO,NE,45,Parcel,-113.95258408153022,51.16775103954852,"{'latitude': '51.16775103954852', 'longitude': '-113.95258408153022', 'human_address': '{""address"": """", ""city"": """", ""state"": """", ""zip"": """"}'}","{'type': 'Point', 'coordinates': [-113.95258408153022, 51.16775103954852]}",4,11,3,85,1,
78,50 CANDLE TC SW,CANDLE,TC,SW,50,Parcel,-114.08354542644625,50.93823683551961,"{'latitude': '50.93823683551961', 'longitude': '-114.08354542644625', 'human_address': '{""address"": """", ""city"": """", ""state"": """", ""zip"": """"}'}","{'type': 'Point', 'coordinates': [-114.08354542644625, 50.93823683551961]}",1,5,283,24,6,
79,8 PATINA HL SW,PATINA,HL,SW,8,Parcel,-114.17268531517051,51.06255606059299,"{'latitude': '51.06255606059299', 'longitude': '-114.17268531517051', 'human_address': '{""address"": """", ""city"": """", ""state"": """", ""zip"": """"}'}","{'type': 'Point', 'coordinates': [-114.17268531517051, 51.06255606059299]}",1,1,275,62,14,
80,606 MCKINNON DR NE,MCKINNON,DR,NE,606,Parcel,-114.00465135933861,51.0568272088598,"{'latitude': '51.0568272088598', 'longitude': '-114.00465135933861', 'human_address': '{""address"": """", ""city"": """", ""state"": """", ""zip"": """"}'}","{'type': 'Point', 'coordinates': [-114.00465135933861, 51.0568272088598]}",4,12,140,249,3,
81,141 PANAMOUNT DR NW,PANAMOUNT,DR,NW,141,Parcel,-114.07170055865726,51.15564957860291,"{'latitude': '51.15564957860291', 'longitude': '-114.07170055865726', 'human_address': '{""address"": """", ""city"": """", ""state"": """", ""zip"": """"}'}","{'type': 'Point', 'coordinates': [-114.07170055865726, 51.15564957860291]}",2,11,235,95,12,
82,259 CITADEL PA NW,CITADEL,PA,NW,259,Parcel,-114.17432752835244,51.140996719916316,"{'latitude': '51.140996719916316', 'longitude': '-114.17432752835244', 'human_address': '{""address"": """", ""city"": """", ""state"": """", ""zip"": """"}'}","{'type': 'Point', 'coordinates': [-114.17432752835244, 51.140996719916316]}",2,3,247,177,10,
83,626 EDGEBANK PL NW,EDGEBANK,PL,NW,626,Parcel,-114.1391849541777,51.131168951925325,"{'latitude': '51.131168951925325', 'longitude': '-114.1391849541777', 'human_address': '{""address"": """", ""city"": """", ""state"": """", ""zip"": """"}'}","{'type': 'Point', 'coordinates': [-114.1391849541777, 51.131168951925325]}",2,2,272,59,4,
84,219 SPRINGBANK VI SW,SPRINGBANK,VI,SW,219,Parcel,-114.19163156698323,51.01886963266316,"{'latitude': '51.01886963266316', 'longitude': '-114.19163156698323', 'human_address': '{""address"": """", ""city"": """", ""state"": """", ""zip"": """"}'}","{'type': 'Point', 'coordinates': [-114.19163156698323, 51.01886963266316]}",1,1,289,22,14,
85,3319 BARR RD NW,BARR,RD,NW,3319,Parcel,-114.13485896057223,51.09242399351625,"{'latitude': '51.09242399351625', 'longitude': '-114.13485896057223', 'human_address': '{""address"": """", ""city"": """", ""state"": """", ""zip"": """"}'}","{'type': 'Point', 'coordinates': [-114.13485896057223, 51.09242399351625]}",2,7,50,280,4,
86,210 PANAMOUNT LD NW,PANAMOUNT,LD,NW,210,Parcel,-114.091159621006,51.15552760979892,"{'latitude': '51.15552760979892', 'longitude': '-114.091159621006', 'human_address': '{""address"": """", ""city"": """", ""state"": """", ""zip"": """"}'}","{'type': 'Point', 'coordinates': [-114.091159621006, 51.15552760979892]}",2,11,235,95,12,
87,4628 MONTALBAN DR NW,MONTALBAN,DR,NW,4628,Parcel,-114.15438759637703,51.077810652319265,"{'latitude': '51.077810652319265', 'longitude': '-114.15438759637703', 'human_address': '{""address"": """", ""city"": """", ""state"": """", ""zip"": """"}'}","{'type': 'Point', 'coordinates': [-114.15438759637703, 51.077810652319265]}",2,13,24,239,7,
88,315 TREMBLANT WY SW,TREMBLANT,WY,SW,315,Parcel,-114.22058044692967,51.03649696289851,"{'latitude': '51.03649696289851', 'longitude': '-114.22058044692967', 'human_address': '{""address"": """", ""city"": """", ""state"": """", ""zip"": """"}'}","{'type': 'Point', 'coordinates': [-114.22058044692967, 51.03649696289851]}",1,1,289,22,14,
89,4767 NELSON RD NW,NELSON,RD,NW,4767,Parcel,-114.09211552483718,51.095167611285646,"{'latitude': '51.095167611285646', 'longitude': '-114.09211552483718', 'human_address': '{""address"": """", ""city"": """", ""state"": """", ""zip"": """"}'}","{'type': 'Point', 'coordinates': [-114.09211552483718, 51.095167611285646]}",2,2,61,277,4,
90,2006 31 ST SW,31,ST,SW,2006,Parcel,-114.1324739716383,51.035960584376205,"{'latitude': '51.035960584376205', 'longitude': '-114.1324739716383', 'human_address': '{""address"": """", ""city"": """", ""state"": """", ""zip"": """"}'}","{'type': 'Point', 'coordinates': [-114.1324739716383, 51.035960584376205]}",1,14,182,38,2,
91,46 PANORAMA HILLS RD NW,PANORAMA HILLS,RD,NW,46,Parcel,-114.07051695733814,51.15155620694584,"{'latitude': '51.15155620694584', 'longitude': '-114.07051695733814', 'human_address': '{""address"": """", ""city"": """", ""state"": """", ""zip"": """"}'}","{'type': 'Point', 'coordinates': [-114.07051695733814, 51.15155620694584]}",2,11,235,95,12,
92,1089 32 AV NE,32,AV,NE,1089,Parcel,-114.03808847446,51.08144260489035,"{'latitude': '51.08144260489035', 'longitude': '-114.03808847446', 'human_address': '{""address"": """", ""city"": """", ""state"": """", ""zip"": """"}'}","{'type': 'Point', 'coordinates': [-114.03808847446, 51.08144260489035]}",4,10,88,202,4,
93,518 20 AV NW,20,AV,NW,518,Parcel,-114.07252166808877,51.07065792188759,"{'latitude': '51.07065792188759', 'longitude': '-114.07252166808877', 'human_address': '{""address"": """", ""city"": """", ""state"": """", ""zip"": """"}'}","{'type': 'Point', 'coordinates': [-114.07252166808877, 51.07065792188759]}",2,7,17,256,7,
94,3530 2 AV SW,2,AV,SW,3530,Parcel,-114.13747992430636,51.05127304146088,"{'latitude': '51.05127304146088', 'longitude': '-114.13747992430636', 'human_address': '{""address"": """", ""city"": """", ""state"": """", ""zip"": """"}'}","{'type': 'Point', 'coordinates': [-114.13747992430636, 51.05127304146088]}",1,14,118,259,2,
95,204 BERNARD ME NW,BERNARD,ME,NW,204,Parcel,-114.07694647568816,51.1357933455245,"{'latitude': '51.1357933455245', 'longitude': '-114.07694647568816', 'human_address': '{""address"": """", ""city"": """", ""state"": """", ""zip"": """"}'}","{'type': 'Point', 'coordinates': [-114.07694647568816, 51.1357933455245]}",2,2,273,60,4,
96,183 EDGEPARK BV NW,EDGEPARK,BV,NW,183,Parcel,-114.1574224357214,51.12978308269761,"{'latitude': '51.12978308269761', 'longitude': '-114.1574224357214', 'human_address': '{""address"": """", ""city"": """", ""state"": """", ""zip"": """"}'}","{'type': 'Point', 'coordinates': [-114.1574224357214, 51.12978308269761]}",2,2,272,59,4,
97,2320 35 AV NE,35,AV,NE,2320,Parcel,-114.00660577691454,51.084011758580964,"{'latitude': '51.084011758580964', 'longitude': '-114.00660577691454', 'human_address': '{""address"": """", ""city"": """", ""state"": """", ""zip"": """"}'}","{'type': 'Point', 'coordinates': [-114.00660577691454, 51.084011758580964]}",4,9,72,67,3,
98,228 LYNNVIEW WY SE,LYNNVIEW,WY,SE,228,Parcel,-114.01859580915192,50.99568988683859,"{'latitude': '50.99568988683859', 'longitude': '-114.01859580915192', 'human_address': '{""address"": """", ""city"": """", ""state"": """", ""zip"": """"}'}","{'type': 'Point', 'coordinates': [-114.01859580915192, 50.99568988683859]}",3,10,28,242,11,
99,1661 112 AV NW,112,AV,NW,1661,Parcel,-114.09778877113494,51.15404627715405,"{'latitude': '51.15404627715405', 'longitude': '-114.09778877113494', 'human_address': '{""address"": """", ""city"": """", ""state"": """", ""zip"": """"}'}","{'type': 'Point', 'coordinates': [-114.09778877113494, 51.15404627715405]}",2,11,235,95,12,
100,4107 15A ST SW,15A,ST,SW,4107,Parcel,-114.0992144457689,51.01783075945914,"{'latitude': '51.01783075945914', 'longitude': '-114.0992144457689', 'human_address': '{""address"": """", ""city"": """", ""state"": """", ""zip"": """"}'}","{'type': 'Point', 'coordinates': [-114.0992144457689, 51.01783075945914]}",1,8,200,267,2,
101,2175 50 AV SE,50,AV,SE,2175,Parcel,-114.0088703086635,51.00857725055299,"{'latitude': '51.00857725055299', 'longitude': '-114.0088703086635', 'human_address': '{""address"": """", ""city"": """", ""state"": """", ""zip"": """"}'}","{'type': 'Point', 'coordinates': [-114.0088703086635, 51.00857725055299]}",3,10,233,186,11,
102,4027 DOVERCREST DR SE,DOVERCREST,DR,SE,4027,Parcel,-113.98894251343081,51.01781513469615,"{'latitude': '51.01781513469615', 'longitude': '-113.98894251343081', 'human_address': '{""address"": """", ""city"": """", ""state"": """", ""zip"": """"}'}","{'type': 'Point', 'coordinates': [-113.98894251343081, 51.01781513469615]}",3,10,196,1,11,
103,927 42 ST SE,42,ST,SE,927,Parcel,-113.97303937568118,51.04433284453528,"{'latitude': '51.04433284453528', 'longitude': '-113.97303937568118', 'human_address': '{""address"": """", ""city"": """", ""state"": """", ""zip"": """"}'}","{'type': 'Point', 'coordinates': [-113.97303937568118, 51.04433284453528]}",3,12,85,211,11,
104,167 TUSCANY MEADOWS HE NW,TUSCANY MEADOWS,HE,NW,167,Parcel,-114.24384288416357,51.114040302145874,"{'latitude': '51.114040302145874', 'longitude': '-114.24384288416357', 'human_address': '{""address"": """", ""city"": """", ""state"": """", ""zip"": """"}'}","{'type': 'Point', 'coordinates': [-114.24384288416357, 51.114040302145874]}",2,13,158,107,9,
105,11 RUNDLEFIELD CL NE,RUNDLEFIELD,CL,NE,11,Parcel,-113.96688104638154,51.06883023990567,"{'latitude': '51.06883023990567', 'longitude': '-113.96688104638154', 'human_address': '{""address"": """", ""city"": """", ""state"": """", ""zip"": """"}'}","{'type': 'Point', 'coordinates': [-113.96688104638154, 51.06883023990567]}",4,9,34,291,3,
106,6004 ELBOW DR SW,ELBOW,DR,SW,6004,Parcel,-114.08284230352544,50.999610914042506,"{'latitude': '50.999610914042506', 'longitude': '-114.08284230352544', 'human_address': '{""address"": """", ""city"": """", ""state"": """", ""zip"": """"}'}","{'type': 'Point', 'coordinates': [-114.08284230352544, 50.999610914042506]}",1,8,64,210,5,
107,203 FALLSWATER RD NE,FALLSWATER,RD,NE,203,Parcel,-113.93912751113174,51.098335472648316,"{'latitude': '51.098335472648316', 'longitude': '-113.93912751113174', 'human_address': '{""address"": """", ""city"": """", ""state"": """", ""zip"": """"}'}","{'type': 'Point', 'coordinates': [-113.93912751113174, 51.098335472648316]}",4,9,56,278,1,
108,139 RANCHVIEW ME NW,RANCHVIEW,ME,NW,139,Parcel,-114.1739775913399,51.11812157655665,"{'latitude': '51.11812157655665', 'longitude': '-114.1739775913399', 'human_address': '{""address"": """", ""city"": """", ""state"": """", ""zip"": """"}'}","{'type': 'Point', 'coordinates': [-114.1739775913399, 51.11812157655665]}",2,3,245,174,10,
109,48 PENEDO PL SE,PENEDO,PL,SE,48,Parcel,-113.94422834925237,51.043418729767524,"{'latitude': '51.043418729767524', 'longitude': '-113.94422834925237', 'human_address': '{""address"": """", ""city"": """", ""state"": """", ""zip"": """"}'}","{'type': 'Point', 'coordinates': [-113.94422834925237, 51.043418729767524]}",3,12,30,244,11,
110,189 EVEROAK CL SW,EVEROAK,CL,SW,189,Parcel,-114.11264446622555,50.914544802634104,"{'latitude': '50.914544802634104', 'longitude': '-114.11264446622555', 'human_address': '{""address"": """", ""city"": """", ""state"": """", ""zip"": """"}'}","{'type': 'Point', 'coordinates': [-114.11264446622555, 50.914544802634104]}",1,5,39,257,6,
111,3611 13 ST SW,13,ST,SW,3611,Parcel,-114.09246563933289,51.022807818951755,"{'latitude': '51.022807818951755', 'longitude': '-114.09246563933289', 'human_address': '{""address"": """", ""city"": """", ""state"": """", ""zip"": """"}'}","{'type': 'Point', 'coordinates': [-114.09246563933289, 51.022807818951755]}",1,8,70,75,5,
112,2216 GLENWOOD DR SW,GLENWOOD,DR,SW,2216,Parcel,-114.14354819479472,51.034140179940714,"{'latitude': '51.034140179940714', 'longitude': '-114.14354819479472', 'human_address': '{""address"": """", ""city"": """", ""state"": """", ""zip"": """"}'}","{'type': 'Point', 'coordinates': [-114.14354819479472, 51.034140179940714]}",1,1,41,286,14,
113,34 SOMERGLEN CR SW,SOMERGLEN,CR,SW,34,Parcel,-114.07447206579593,50.89728384998749,"{'latitude': '50.89728384998749', 'longitude': '-114.07447206579593', 'human_address': '{""address"": """", ""city"": """", ""state"": """", ""zip"": """"}'}","{'type': 'Point', 'coordinates': [-114.07447206579593, 50.89728384998749]}",1,5,55,125,6,
114,4140 MARYVALE RD NE,MARYVALE,RD,NE,4140,Parcel,-113.9729677260275,51.05710592226616,"{'latitude': '51.05710592226616', 'longitude': '-113.9729677260275', 'human_address': '{""address"": """", ""city"": """", ""state"": """", ""zip"": """"}'}","{'type': 'Point', 'coordinates': [-113.9729677260275, 51.05710592226616]}",4,12,77,80,3,
115,232 CORAL SANDS PL NE,CORAL SANDS,PL,NE,232,Parcel,-113.93026780086362,51.09757983471454,"{'latitude': '51.09757983471454', 'longitude': '-113.93026780086362', 'human_address': '{""address"": """", ""city"": """", ""state"": """", ""zip"": """"}'}","{'type': 'Point', 'coordinates': [-113.93026780086362, 51.09757983471454]}",4,9,293,87,3,
116,70 WHITMAN CL NE,WHITMAN,CL,NE,70,Parcel,-113.9794969295798,51.082059621891815,"{'latitude': '51.082059621891815', 'longitude': '-113.9794969295798', 'human_address': '{""address"": """", ""city"": """", ""state"": """", ""zip"": """"}'}","{'type': 'Point', 'coordinates': [-113.9794969295798, 51.082059621891815]}",4,9,145,251,3,
117,3535 48 ST NE,48,ST,NE,3535,Parcel,-113.96406440510658,51.0847156536795,"{'latitude': '51.0847156536795', 'longitude': '-113.96406440510658', 'human_address': '{""address"": """", ""city"": """", ""state"": """", ""zip"": """"}'}","{'type': 'Point', 'coordinates': [-113.96406440510658, 51.0847156536795]}",4,9,145,251,3,
118,3 AUTUMN PL SE,AUTUMN,PL,SE,3,Parcel,-113.96590516872345,50.89768596448862,"{'latitude': '50.89768596448862', 'longitude': '-113.96590516872345', 'human_address': '{""address"": """", ""city"": """", ""state"": """", ""zip"": """"}'}","{'type': 'Point', 'coordinates': [-113.96590516872345, 50.89768596448862]}",3,4,95,217,8,
119,156 SOMERSIDE CL SW,SOMERSIDE,CL,SW,156,Parcel,-114.0927680204551,50.90019009197815,"{'latitude': '50.90019009197815', 'longitude': '-114.0927680204551', 'human_address': '{""address"": """", ""city"": """", ""state"": """", ""zip"": """"}'}","{'type': 'Point', 'coordinates': [-114.0927680204551, 50.90019009197815]}",1,5,55,125,6,
120,93 MCKENZIE LAKE PT SE,MCKENZIE LAKE,PT,SE,93,Parcel,-113.98155671015874,50.908325732630274,"{'latitude': '50.908325732630274', 'longitude': '-113.98155671015874', 'human_address': '{""address"": """", ""city"": """", ""state"": """", ""zip"": """"}'}","{'type': 'Point', 'coordinates': [-113.98155671015874, 50.908325732630274]}",3,4,296,89,13,
121,448 BRACEWOOD CR SW,BRACEWOOD,CR,SW,448,Parcel,-114.10854664262455,50.953391863801876,"{'latitude': '50.953391863801876', 'longitude': '-114.10854664262455', 'human_address': '{""address"": """", ""city"": """", ""state"": """", ""zip"": """"}'}","{'type': 'Point', 'coordinates': [-114.10854664262455, 50.953391863801876]}",1,8,23,238,5,
122,304 SKYVIEW RANCH GV NE,SKYVIEW RANCH,GV,NE,304,Parcel,-113.94768984732946,51.16319125312812,"{'latitude': '51.16319125312812', 'longitude': '-113.94768984732946', 'human_address': '{""address"": """", ""city"": """", ""state"": """", ""zip"": """"}'}","{'type': 'Point', 'coordinates': [-113.94768984732946, 51.16319125312812]}",4,11,12,132,1,
123,5324 BARRETT DR NW,BARRETT,DR,NW,5324,Parcel,-114.13406351084892,51.101927029795014,"{'latitude': '51.101927029795014', 'longitude': '-114.13406351084892', 'human_address': '{""address"": """", ""city"": """", ""state"": """", ""zip"": """"}'}","{'type': 'Point', 'coordinates': [-114.13406351084892, 51.101927029795014]}",2,7,50,280,4,
124,2824 32 ST SW,32,ST,SW,2824,Parcel,-114.1339895494894,51.02925671417776,"{'latitude': '51.02925671417776', 'longitude': '-114.1339895494894', 'human_address': '{""address"": """", ""city"": """", ""state"": """", ""zip"": """"}'}","{'type': 'Point', 'coordinates': [-114.1339895494894, 51.02925671417776]}",1,14,182,38,2,
125,45 ASPEN SUMMIT DR SW,ASPEN SUMMIT,DR,SW,45,Parcel,-114.20375647473544,51.03965593993336,"{'latitude': '51.03965593993336', 'longitude': '-114.20375647473544', 'human_address': '{""address"": """", ""city"": """", ""state"": """", ""zip"": """"}'}","{'type': 'Point', 'coordinates': [-114.20375647473544, 51.03965593993336]}",1,1,48,284,14,
126,1911 65 ST NE,65,ST,NE,1911,Parcel,-113.93955865067174,51.0696512936927,"{'latitude': '51.0696512936927', 'longitude': '-113.93955865067174', 'human_address': '{""address"": """", ""city"": """", ""state"": """", ""zip"": """"}'}","{'type': 'Point', 'coordinates': [-113.93955865067174, 51.0696512936927]}",4,9,36,294,3,
127,6 COUNTRY HILLS CV NW,COUNTRY HILLS,CV,NW,6,Parcel,-114.07090860064446,51.145736461701446,"{'latitude': '51.145736461701446', 'longitude': '-114.07090860064446', 'human_address': '{""address"": """", ""city"": """", ""state"": """", ""zip"": """"}'}","{'type': 'Point', 'coordinates': [-114.07090860064446, 51.145736461701446]}",2,2,172,79,12,
128,959 LIVINGSTON WY NE,LIVINGSTON,WY,NE,959,Parcel,-114.06202674802543,51.18468947110702,"{'latitude': '51.18468947110702', 'longitude': '-114.06202674802543', 'human_address': '{""address"": """", ""city"": """", ""state"": """", ""zip"": """"}'}","{'type': 'Point', 'coordinates': [-114.06202674802543, 51.18468947110702]}",4,11,246,10,12,
129,321 NOLANCREST HT NW,NOLANCREST,HT,NW,321,Parcel,-114.16878335682904,51.175086733014886,"{'latitude': '51.175086733014886', 'longitude': '-114.16878335682904', 'human_address': '{""address"": """", ""city"": """", ""state"": """", ""zip"": """"}'}","{'type': 'Point', 'coordinates': [-114.16878335682904, 51.175086733014886]}",2,3,188,188,10,
130,118 COUNTRY HILLS CV NW,COUNTRY HILLS,CV,NW,118,Parcel,-114.07013176852745,51.14539359107442,"{'latitude': '51.14539359107442', 'longitude': '-114.07013176852745', 'human_address': '{""address"": """", ""city"": """", ""state"": """", ""zip"": """"}'}","{'type': 'Point', 'coordinates': [-114.07013176852745, 51.14539359107442]}",2,2,172,79,12,
131,5 ROCKBLUFF PL NW,ROCKBLUFF,PL,NW,5,Parcel,-114.25095307178428,51.14773083495465,"{'latitude': '51.14773083495465', 'longitude': '-114.25095307178428', 'human_address': '{""address"": """", ""city"": """", ""state"": """", ""zip"": """"}'}","{'type': 'Point', 'coordinates': [-114.25095307178428, 51.14773083495465]}",2,13,193,165,9,
132,63 DEERPATH RD SE,DEERPATH,RD,SE,63,Parcel,-114.02527338003077,50.92425306721717,"{'latitude': '50.92425306721717', 'longitude': '-114.02527338003077', 'human_address': '{""address"": """", ""city"": """", ""state"": """", ""zip"": """"}'}","{'type': 'Point', 'coordinates': [-114.02527338003077, 50.92425306721717]}",3,6,151,255,13,
133,114 HIDDEN CR NW,HIDDEN,CR,NW,114,Parcel,-114.11833533091273,51.14511647914471,"{'latitude': '51.14511647914471', 'longitude': '-114.11833533091273', 'human_address': '{""address"": """", ""city"": """", ""state"": """", ""zip"": """"}'}","{'type': 'Point', 'coordinates': [-114.11833533091273, 51.14511647914471]}",2,2,25,289,12,
134,1465 HUNTERBROOK RD NW,HUNTERBROOK,RD,NW,1465,Parcel,-114.09061924938834,51.123387875910744,"{'latitude': '51.123387875910744', 'longitude': '-114.09061924938834', 'human_address': '{""address"": """", ""city"": """", ""state"": """", ""zip"": """"}'}","{'type': 'Point', 'coordinates': [-114.09061924938834, 51.123387875910744]}",2,2,261,158,4,
135,154 SCEPTRE CL NW,SCEPTRE,CL,NW,154,Parcel,-114.22701431206214,51.11742572584435,"{'latitude': '51.11742572584435', 'longitude': '-114.22701431206214', 'human_address': '{""address"": """", ""city"": """", ""state"": """", ""zip"": """"}'}","{'type': 'Point', 'coordinates': [-114.22701431206214, 51.11742572584435]}",2,13,148,48,9,
136,181 EDGEDALE DR NW,EDGEDALE,DR,NW,181,Parcel,-114.15715537914745,51.12345365717552,"{'latitude': '51.12345365717552', 'longitude': '-114.15715537914745', 'human_address': '{""address"": """", ""city"": """", ""state"": """", ""zip"": """"}'}","{'type': 'Point', 'coordinates': [-114.15715537914745, 51.12345365717552]}",2,2,272,59,4,
137,1759 66 AV SE,66,AV,SE,1759,Parcel,-114.01834006855402,50.9940178674949,"{'latitude': '50.9940178674949', 'longitude': '-114.01834006855402', 'human_address': '{""address"": """", ""city"": """", ""state"": """", ""zip"": """"}'}","{'type': 'Point', 'coordinates': [-114.01834006855402, 50.9940178674949]}",3,10,28,242,11,
138,2 PANATELLA DR NW,PANATELLA,DR,NW,2,Parcel,-114.07409216520345,51.16497729657315,"{'latitude': '51.16497729657315', 'longitude': '-114.07409216520345', 'human_address': '{""address"": """", ""city"": """", ""state"": """", ""zip"": """"}'}","{'type': 'Point', 'coordinates': [-114.07409216520345, 51.16497729657315]}",2,11,235,95,12,
139,68 SETON HE SE,SETON,HE,SE,68,Parcel,-113.94970102149999,50.86829593131521,"{'latitude': '50.86829593131521', 'longitude': '-113.94970102149999', 'human_address': '{""address"": """", ""city"": """", ""state"": """", ""zip"": """"}'}","{'type': 'Point', 'coordinates': [-113.94970102149999, 50.86829593131521]}",3,4,229,94,8,
140,9393 HIDDEN VALLEY DR NW,HIDDEN VALLEY,DR,NW,9393,Parcel,-114.12936717469368,51.14886934654841,"{'latitude': '51.14886934654841', 'longitude': '-114.12936717469368', 'human_address': '{""address"": """", ""city"": """", ""state"": """", ""zip"": """"}'}","{'type': 'Point', 'coordinates': [-114.12936717469368, 51.14886934654841]}",2,2,25,289,12,
141,8 SAN DIEGO MR NE,SAN DIEGO,MR,NE,8,Parcel,-113.92966307288313,51.093299677055086,"{'latitude': '51.093299677055086', 'longitude': '-113.92966307288313', 'human_address': '{""address"": """", ""city"": """", ""state"": """", ""zip"": """"}'}","{'type': 'Point', 'coordinates': [-113.92966307288313, 51.093299677055086]}",4,9,161,116,3,
142,264 COVENTRY GR NE,COVENTRY,GR,NE,264,Parcel,-114.04965094161065,51.156369042409345,"{'latitude': '51.156369042409345', 'longitude': '-114.04965094161065', 'human_address': '{""address"": """", ""city"": """", ""state"": """", ""zip"": """"}'}","{'type': 'Point', 'coordinates': [-114.04965094161065, 51.156369042409345]}",4,11,251,8,12,
143,607 POPLAR RD SW,POPLAR,RD,SW,607,Parcel,-114.13698084285726,51.04756352041987,"{'latitude': '51.04756352041987', 'longitude': '-114.13698084285726', 'human_address': '{""address"": """", ""city"": """", ""state"": """", ""zip"": """"}'}","{'type': 'Point', 'coordinates': [-114.13698084285726, 51.04756352041987]}",1,14,118,259,2,
144,81 EDGEFORD WY NW,EDGEFORD,WY,NW,81,Parcel,-114.15545092175998,51.12116329440532,"{'latitude': '51.12116329440532', 'longitude': '-114.15545092175998', 'human_address': '{""address"": """", ""city"": """", ""state"": """", ""zip"": """"}'}","{'type': 'Point', 'coordinates': [-114.15545092175998, 51.12116329440532]}",2,2,272,59,4,
145,3205 88 ST SE,88,ST,SE,3205,Parcel,-113.90626600059664,51.0248177296571,"{'latitude': '51.0248177296571', 'longitude': '-113.90626600059664', 'human_address': '{""address"": """", ""city"": """", ""state"": """", ""zip"": """"}'}","{'type': 'Point', 'coordinates': [-113.90626600059664, 51.0248177296571]}",3,12,10,46,11,
146,213 TUSCANY RIDGE HT NW,TUSCANY RIDGE,HT,NW,213,Parcel,-114.25237774975295,51.13078392785532,"{'latitude': '51.13078392785532', 'longitude': '-114.25237774975295', 'human_address': '{""address"": """", ""city"": """", ""state"": """", ""zip"": """"}'}","{'type': 'Point', 'coordinates': [-114.25237774975295, 51.13078392785532]}",2,13,158,107,9,
147,35 COUGARSTONE PT SW,COUGARSTONE,PT,SW,35,Parcel,-114.2119251935492,51.07333940753254,"{'latitude': '51.07333940753254', 'longitude': '-114.2119251935492', 'human_address': '{""address"": """", ""city"": """", ""state"": """", ""zip"": """"}'}","{'type': 'Point', 'coordinates': [-114.2119251935492, 51.07333940753254]}",1,1,128,272,14,
148,220 RANCHERO PL NW,RANCHERO,PL,NW,220,Parcel,-114.18841614798744,51.12347777002579,"{'latitude': '51.12347777002579', 'longitude': '-114.18841614798744', 'human_address': '{""address"": """", ""city"": """", ""state"": """", ""zip"": """"}'}","{'type': 'Point', 'coordinates': [-114.18841614798744, 51.12347777002579]}",2,3,245,174,10,
149,11 PANORAMA HILLS GR NW,PANORAMA HILLS,GR,NW,11,Parcel,-114.08006529682723,51.14882497131721,"{'latitude': '51.14882497131721', 'longitude': '-114.08006529682723', 'human_address': '{""address"": """", ""city"": """", ""state"": """", ""zip"": """"}'}","{'type': 'Point', 'coordinates': [-114.08006529682723, 51.14882497131721]}",2,11,235,95,12,
150,37 WALGROVE PZ SE,WALGROVE,PZ,SE,37,Parcel,-114.02543948619186,50.865494618849844,"{'latitude': '50.865494618849844', 'longitude': '-114.02543948619186', 'human_address': '{""address"": """", ""city"": """", ""state"": """", ""zip"": """"}'}","{'type': 'Point', 'coordinates': [-114.02543948619186, 50.865494618849844]}",3,6,135,190,13,
151,40 CREEKSTONE CV SW,CREEKSTONE,CV,SW,40,Parcel,-114.05854908146488,50.86060562347994,"{'latitude': '50.86060562347994', 'longitude': '-114.05854908146488', 'human_address': '{""address"": """", ""city"": """", ""state"": """", ""zip"": """"}'}","{'type': 'Point', 'coordinates': [-114.05854908146488, 50.86060562347994]}",3,6,133,139,6,
152,2440 29 AV SW,29,AV,SW,2440,Parcel,-114.11661318045581,51.02777405461664,"{'latitude': '51.02777405461664', 'longitude': '-114.11661318045581', 'human_address': '{""address"": """", ""city"": """", ""state"": """", ""zip"": """"}'}","{'type': 'Point', 'coordinates': [-114.11661318045581, 51.02777405461664]}",1,14,181,282,2,
153,1410 17 AV SW,17,AV,SW,1410,Parcel,-114.09352081675969,51.037947978745976,"{'latitude': '51.037947978745976', 'longitude': '-114.09352081675969', 'human_address': '{""address"": """", ""city"": """", ""state"": """", ""zip"": """"}'}","{'type': 'Point', 'coordinates': [-114.09352081675969, 51.037947978745976]}",1,14,260,130,2,
154,168 SAVANNA RD NE,SAVANNA,RD,NE,168,Parcel,-113.95559011538944,51.13420314651178,"{'latitude': '51.13420314651178', 'longitude': '-113.95559011538944', 'human_address': '{""address"": """", ""city"": """", ""state"": """", ""zip"": """"}'}","{'type': 'Point', 'coordinates': [-113.95559011538944, 51.13420314651178]}",4,11,2,143,1,
155,5 BUCKTHORN CR NW,BUCKTHORN,CR,NW,5,Parcel,-114.06618398632092,51.10619359118068,"{'latitude': '51.10619359118068', 'longitude': '-114.06618398632092', 'human_address': '{""address"": """", ""city"": """", ""state"": """", ""zip"": """"}'}","{'type': 'Point', 'coordinates': [-114.06618398632092, 51.10619359118068]}",2,2,192,164,4,
156,9 BRIDLEWOOD CR SW,BRIDLEWOOD,CR,SW,9,Parcel,-114.10524513003394,50.9031281095458,"{'latitude': '50.9031281095458', 'longitude': '-114.10524513003394', 'human_address': '{""address"": """", ""city"": """", ""state"": """", ""zip"": """"}'}","{'type': 'Point', 'coordinates': [-114.10524513003394, 50.9031281095458]}",1,5,138,283,6,
157,9014 EDGEBROOK DR NW,EDGEBROOK,DR,NW,9014,Parcel,-114.1332908786286,51.135376460607525,"{'latitude': '51.135376460607525', 'longitude': '-114.1332908786286', 'human_address': '{""address"": """", ""city"": """", ""state"": """", ""zip"": """"}'}","{'type': 'Point', 'coordinates': [-114.1332908786286, 51.135376460607525]}",2,2,272,59,4,
158,249 BRIGHTONSTONE GR SE,BRIGHTONSTONE,GR,SE,249,Parcel,-113.95175513843297,50.921271933718046,"{'latitude': '50.921271933718046', 'longitude': '-113.95175513843297', 'human_address': '{""address"": """", ""city"": """", ""state"": """", ""zip"": """"}'}","{'type': 'Point', 'coordinates': [-113.95175513843297, 50.921271933718046]}",3,4,139,247,8,
159,2445 30 AV SW,30,AV,SW,2445,Parcel,-114.11688550403267,51.026618597879136,"{'latitude': '51.026618597879136', 'longitude': '-114.11688550403267', 'human_address': '{""address"": """", ""city"": """", ""state"": """", ""zip"": """"}'}","{'type': 'Point', 'coordinates': [-114.11688550403267, 51.026618597879136]}",1,14,181,282,2,
160,3126 14 ST NW,14,ST,NW,3126,Parcel,-114.09447456366527,51.078894354022594,"{'latitude': '51.078894354022594', 'longitude': '-114.09447456366527', 'human_address': '{""address"": """", ""city"": """", ""state"": """", ""zip"": """"}'}","{'type': 'Point', 'coordinates': [-114.09447456366527, 51.078894354022594]}",2,7,92,215,4,
161,185 HIDDEN SPRING CI NW,HIDDEN SPRING,CI,NW,185,Parcel,-114.10866656185753,51.153273265832546,"{'latitude': '51.153273265832546', 'longitude': '-114.10866656185753', 'human_address': '{""address"": """", ""city"": """", ""state"": """", ""zip"": """"}'}","{'type': 'Point', 'coordinates': [-114.10866656185753, 51.153273265832546]}",2,2,25,289,12,
162,4710 HAMPTONS WY NW,HAMPTONS,WY,NW,4710,Parcel,-114.15862479766915,51.15031943276384,"{'latitude': '51.15031943276384', 'longitude': '-114.15862479766915', 'human_address': '{""address"": """", ""city"": """", ""state"": """", ""zip"": """"}'}","{'type': 'Point', 'coordinates': [-114.15862479766915, 51.15031943276384]}",2,3,286,27,10,
163,14 TEMPLE PL NE,TEMPLE,PL,NE,14,Parcel,-113.95397460350891,51.08497929907525,"{'latitude': '51.08497929907525', 'longitude': '-113.95397460350891', 'human_address': '{""address"": """", ""city"": """", ""state"": """", ""zip"": """"}'}","{'type': 'Point', 'coordinates': [-113.95397460350891, 51.08497929907525]}",4,9,22,237,3,
164,36 DALRYMPLE GR NW,DALRYMPLE,GR,NW,36,Parcel,-114.16505419663724,51.11191297572339,"{'latitude': '51.11191297572339', 'longitude': '-114.16505419663724', 'human_address': '{""address"": """", ""city"": """", ""state"": """", ""zip"": """"}'}","{'type': 'Point', 'coordinates': [-114.16505419663724, 51.11191297572339]}",2,7,38,260,4,
165,2033 11 AV SW,11,AV,SW,2033,Parcel,-114.10850018888375,51.04349595238614,"{'latitude': '51.04349595238614', 'longitude': '-114.10850018888375', 'human_address': '{""address"": """", ""city"": """", ""state"": """", ""zip"": """"}'}","{'type': 'Point', 'coordinates': [-114.10850018888375, 51.04349595238614]}",1,14,136,235,2,
166,34 MT ALBERTA BA SE,MT ALBERTA,BA,SE,34,Parcel,-113.98606411071673,50.920303899640615,"{'latitude': '50.920303899640615', 'longitude': '-113.98606411071673', 'human_address': '{""address"": """", ""city"": """", ""state"": """", ""zip"": """"}'}","{'type': 'Point', 'coordinates': [-113.98606411071673, 50.920303899640615]}",3,4,296,89,13,
167,203 56 AV NE,56,AV,NE,203,Parcel,-114.05948464998004,51.102538262996276,"{'latitude': '51.102538262996276', 'longitude': '-114.05948464998004', 'human_address': '{""address"": """", ""city"": """", ""state"": """", ""zip"": """"}'}","{'type': 'Point', 'coordinates': [-114.05948464998004, 51.102538262996276]}",4,2,192,164,4,
168,1137 73 ST SW,73,ST,SW,1137,Parcel,-114.193738958332,51.05461392289783,"{'latitude': '51.05461392289783', 'longitude': '-114.193738958332', 'human_address': '{""address"": """", ""city"": """", ""state"": """", ""zip"": """"}'}","{'type': 'Point', 'coordinates': [-114.193738958332, 51.05461392289783]}",1,1,114,194,14,
169,159 HAMPTONS LI NW,HAMPTONS,LI,NW,159,Parcel,-114.14122821580287,51.143642011429954,"{'latitude': '51.143642011429954', 'longitude': '-114.14122821580287', 'human_address': '{""address"": """", ""city"": """", ""state"": """", ""zip"": """"}'}","{'type': 'Point', 'coordinates': [-114.14122821580287, 51.143642011429954]}",2,3,286,27,10,
170,69 COPPERSTONE CL SE,COPPERSTONE,CL,SE,69,Parcel,-113.92614551057433,50.9156091556994,"{'latitude': '50.9156091556994', 'longitude': '-113.92614551057433', 'human_address': '{""address"": """", ""city"": """", ""state"": """", ""zip"": """"}'}","{'type': 'Point', 'coordinates': [-113.92614551057433, 50.9156091556994]}",3,4,96,230,8,
171,162 SANDSTONE RD NW,SANDSTONE,RD,NW,162,Parcel,-114.0947177805376,51.13266234306137,"{'latitude': '51.13266234306137', 'longitude': '-114.0947177805376', 'human_address': '{""address"": """", ""city"": """", ""state"": """", ""zip"": """"}'}","{'type': 'Point', 'coordinates': [-114.0947177805376, 51.13266234306137]}",2,2,270,121,4,
172,62 EVANSFORD CI NW,EVANSFORD,CI,NW,62,Parcel,-114.10802573920947,51.17004926916546,"{'latitude': '51.17004926916546', 'longitude': '-114.10802573920947', 'human_address': '{""address"": """", ""city"": """", ""state"": """", ""zip"": """"}'}","{'type': 'Point', 'coordinates': [-114.10802573920947, 51.17004926916546]}",2,3,237,92,10,
173,8467 SADDLEBROOK DR NE,SADDLEBROOK,DR,NE,8467,Parcel,-113.92961107867853,51.1314126110589,"{'latitude': '51.1314126110589', 'longitude': '-113.92961107867853', 'human_address': '{""address"": """", ""city"": """", ""state"": """", ""zip"": """"}'}","{'type': 'Point', 'coordinates': [-113.92961107867853, 51.1314126110589]}",4,11,2,143,1,
174,137 ARBOUR RIDGE CI NW,ARBOUR RIDGE,CI,NW,137,Parcel,-114.18767204673622,51.1403722925291,"{'latitude': '51.1403722925291', 'longitude': '-114.18767204673622', 'human_address': '{""address"": """", ""city"": """", ""state"": """", ""zip"": """"}'}","{'type': 'Point', 'coordinates': [-114.18767204673622, 51.1403722925291]}",2,3,244,173,10,
175,50 LEGACY BV SE,LEGACY,BV,SE,50,Parcel,-114.02135213436732,50.86227251841829,"{'latitude': '50.86227251841829', 'longitude': '-114.02135213436732', 'human_address': '{""address"": """", ""city"": """", ""state"": """", ""zip"": """"}'}","{'type': 'Point', 'coordinates': [-114.02135213436732, 50.86227251841829]}",3,6,99,159,13,
176,3312 DOVERVIEW RD SE,DOVERVIEW,RD,SE,3312,Parcel,-113.98675047206197,51.01916024432641,"{'latitude': '51.01916024432641', 'longitude': '-113.98675047206197', 'human_address': '{""address"": """", ""city"": """", ""state"": """", ""zip"": """"}'}","{'type': 'Point', 'coordinates': [-113.98675047206197, 51.01916024432641]}",3,10,196,1,11,
177,1037 PANORAMA HILLS LD NW,PANORAMA HILLS,LD,NW,1037,Parcel,-114.08756683563381,51.15333832076522,"{'latitude': '51.15333832076522', 'longitude': '-114.08756683563381', 'human_address': '{""address"": """", ""city"": """", ""state"": """", ""zip"": """"}'}","{'type': 'Point', 'coordinates': [-114.08756683563381, 51.15333832076522]}",2,11,235,95,12,
178,204 PANORA CL NW,PANORA,CL,NW,204,Parcel,-114.0955589335262,51.166676056210314,"{'latitude': '51.166676056210314', 'longitude': '-114.0955589335262', 'human_address': '{""address"": """", ""city"": """", ""state"": """", ""zip"": """"}'}","{'type': 'Point', 'coordinates': [-114.0955589335262, 51.166676056210314]}",2,11,235,95,12,
179,#205 950 ARBOUR LAKE RD NW,ARBOUR LAKE,RD,NW,950,Parcel,-114.21378369695398,51.13331051097213,"{'latitude': '51.13331051097213', 'longitude': '-114.21378369695398', 'human_address': '{""address"": """", ""city"": """", ""state"": """", ""zip"": """"}'}","{'type': 'Point', 'coordinates': [-114.21378369695398, 51.13331051097213]}",2,3,244,173,10,
180,131 8 AV SW,8,AV,SW,131,Parcel,-114.06483955875713,51.04548359579696,"{'latitude': '51.04548359579696', 'longitude': '-114.06483955875713', 'human_address': '{""address"": """", ""city"": """", ""state"": """", ""zip"": """"}'}","{'type': 'Point', 'coordinates': [-114.06483955875713, 51.04548359579696]}",1,7,262,160,7,
181,3460 SPRINGBANK DR SW,SPRINGBANK,DR,SW,3460,Parcel,-114.20646411575548,51.024767095650304,"{'latitude': '51.024767095650304', 'longitude': '-114.20646411575548', 'human_address': '{""address"": """", ""city"": """", ""state"": """", ""zip"": """"}'}","{'type': 'Point', 'coordinates': [-114.20646411575548, 51.024767095650304]}",1,1,289,22,14,
182,140 MIDLAWN CL SE,MIDLAWN,CL,SE,140,Parcel,-114.06449733296844,50.919841917449666,"{'latitude': '50.919841917449666', 'longitude': '-114.06449733296844', 'human_address': '{""address"": """", ""city"": """", ""state"": """", ""zip"": """"}'}","{'type': 'Point', 'coordinates': [-114.06449733296844, 50.919841917449666]}",3,6,263,161,13,
183,9515 ASSINIBOINE RD SE,ASSINIBOINE,RD,SE,9515,Parcel,-114.05171691022366,50.96792620815701,"{'latitude': '50.96792620815701', 'longitude': '-114.05171691022366', 'human_address': '{""address"": """", ""city"": """", ""state"": """", ""zip"": """"}'}","{'type': 'Point', 'coordinates': [-114.05171691022366, 50.96792620815701]}",3,10,174,81,5,
184,1323 107 AV SW,107,AV,SW,1323,Parcel,-114.09282856044643,50.957098831522195,"{'latitude': '50.957098831522195', 'longitude': '-114.09282856044643', 'human_address': '{""address"": """", ""city"": """", ""state"": """", ""zip"": """"}'}","{'type': 'Point', 'coordinates': [-114.09282856044643, 50.957098831522195]}",1,8,7,91,5,
185,3014 27 ST SW,27,ST,SW,3014,Parcel,-114.12645014676632,51.02797058932301,"{'latitude': '51.02797058932301', 'longitude': '-114.12645014676632', 'human_address': '{""address"": """", ""city"": """", ""state"": """", ""zip"": """"}'}","{'type': 'Point', 'coordinates': [-114.12645014676632, 51.02797058932301]}",1,14,182,38,2,
186,151 EDGEVIEW DR NW,EDGEVIEW,DR,NW,151,Parcel,-114.15305731624944,51.130639671171146,"{'latitude': '51.130639671171146', 'longitude': '-114.15305731624944', 'human_address': '{""address"": """", ""city"": """", ""state"": """", ""zip"": """"}'}","{'type': 'Point', 'coordinates': [-114.15305731624944, 51.130639671171146]}",2,2,272,59,4,
187,310 COVENTRY CI NE,COVENTRY,CI,NE,310,Parcel,-114.05190377762217,51.15863595956831,"{'latitude': '51.15863595956831', 'longitude': '-114.05190377762217', 'human_address': '{""address"": """", ""city"": """", ""state"": """", ""zip"": """"}'}","{'type': 'Point', 'coordinates': [-114.05190377762217, 51.15863595956831]}",4,11,251,8,12,
188,177 ROCKY RIDGE CV NW,ROCKY RIDGE,CV,NW,177,Parcel,-114.23952344131928,51.14413717899828,"{'latitude': '51.14413717899828', 'longitude': '-114.23952344131928', 'human_address': '{""address"": """", ""city"": """", ""state"": """", ""zip"": """"}'}","{'type': 'Point', 'coordinates': [-114.23952344131928, 51.14413717899828]}",2,13,193,165,9,
189,99 CRANFIELD CI SE,CRANFIELD,CI,SE,99,Parcel,-113.97856676748158,50.88808278095417,"{'latitude': '50.88808278095417', 'longitude': '-113.97856676748158', 'human_address': '{""address"": """", ""city"": """", ""state"": """", ""zip"": """"}'}","{'type': 'Point', 'coordinates': [-113.97856676748158, 50.88808278095417]}",3,4,294,82,8,
190,659 MARTINDALE BV NE,MARTINDALE,BV,NE,659,Parcel,-113.96899659084089,51.118773311454454,"{'latitude': '51.118773311454454', 'longitude': '-113.96899659084089', 'human_address': '{""address"": """", ""city"": """", ""state"": """", ""zip"": """"}'}","{'type': 'Point', 'coordinates': [-113.96899659084089, 51.118773311454454]}",4,9,180,184,1,
191,150 ERIN RD SE,ERIN,RD,SE,150,Parcel,-113.96506801759679,51.01576129801586,"{'latitude': '51.01576129801586', 'longitude': '-113.96506801759679', 'human_address': '{""address"": """", ""city"": """", ""state"": """", ""zip"": """"}'}","{'type': 'Point', 'coordinates': [-113.96506801759679, 51.01576129801586]}",3,12,35,293,11,
192,472 MILLVIEW BA SW,MILLVIEW,BA,SW,472,Parcel,-114.09615790953353,50.92033284225937,"{'latitude': '50.92033284225937', 'longitude': '-114.09615790953353', 'human_address': '{""address"": """", ""city"": """", ""state"": """", ""zip"": """"}'}","{'type': 'Point', 'coordinates': [-114.09615790953353, 50.92033284225937]}",1,5,156,74,6,
193,625 67 AV SW,67,AV,SW,625,Parcel,-114.07611409797545,50.99312305936803,"{'latitude': '50.99312305936803', 'longitude': '-114.07611409797545', 'human_address': '{""address"": """", ""city"": """", ""state"": """", ""zip"": """"}'}","{'type': 'Point', 'coordinates': [-114.07611409797545, 50.99312305936803]}",1,8,120,263,5,
194,352 ABINGER CR NE,ABINGER,CR,NE,352,Parcel,-113.93378023915038,51.056510589066384,"{'latitude': '51.056510589066384', 'longitude': '-113.93378023915038', 'human_address': '{""address"": """", ""city"": """", ""state"": """", ""zip"": """"}'}","{'type': 'Point', 'coordinates': [-113.93378023915038, 51.056510589066384]}",4,12,94,168,3,
195,124 PINEWIND RD NE,PINEWIND,RD,NE,124,Parcel,-113.95158684087633,51.08044341226442,"{'latitude': '51.08044341226442', 'longitude': '-113.95158684087633', 'human_address': '{""address"": """", ""city"": """", ""state"": """", ""zip"": """"}'}","{'type': 'Point', 'coordinates': [-113.95158684087633, 51.08044341226442]}",4,9,36,294,3,
196,40 CASTLEGLEN WY NE,CASTLEGLEN,WY,NE,40,Parcel,-113.95798864573115,51.10492071213714,"{'latitude': '51.10492071213714', 'longitude': '-113.95798864573115', 'human_address': '{""address"": """", ""city"": """", ""state"": """", ""zip"": """"}'}","{'type': 'Point', 'coordinates': [-113.95798864573115, 51.10492071213714]}",4,9,119,262,1,
197,101 FALWORTH WY NE,FALWORTH,WY,NE,101,Parcel,-113.94940861959073,51.10157671835225,"{'latitude': '51.10157671835225', 'longitude': '-113.94940861959073', 'human_address': '{""address"": """", ""city"": """", ""state"": """", ""zip"": """"}'}","{'type': 'Point', 'coordinates': [-113.94940861959073, 51.10157671835225]}",4,9,56,278,1,
198,946 MAHOGANY BV SE,MAHOGANY,BV,SE,946,Parcel,-113.91176113916725,50.89192158516635,"{'latitude': '50.89192158516635', 'longitude': '-113.91176113916725', 'human_address': '{""address"": """", ""city"": """", ""state"": """", ""zip"": """"}'}","{'type': 'Point', 'coordinates': [-113.91176113916725, 50.89192158516635]}",3,4,116,258,8,
199,70 MOUNTAIN PARK CI SE,MOUNTAIN PARK,CI,SE,70,Parcel,-113.98836059818815,50.9129523830667,"{'latitude': '50.9129523830667', 'longitude': '-113.98836059818815', 'human_address': '{""address"": """", ""city"": """", ""state"": """", ""zip"": """"}'}","{'type': 'Point', 'coordinates': [-113.98836059818815, 50.9129523830667]}",3,4,296,89,13,
200,6508 34 ST SW,34,ST,SW,6508,Parcel,-114.13613606777075,50.99653013014666,"{'latitude': '50.99653013014666', 'longitude': '-114.13613606777075', 'human_address': '{""address"": """", ""city"": """", ""state"": """", ""zip"": """"}'}","{'type': 'Point', 'coordinates': [-114.13613606777075, 50.99653013014666]}",1,8,129,266,5,
201,50 EDGEBROOK WY NW,EDGEBROOK,WY,NW,50,Parcel,-114.13465960657376,51.12844482541283,"{'latitude': '51.12844482541283', 'longitude': '-114.13465960657376', 'human_address': '{""address"": """", ""city"": """", ""state"": """", ""zip"": """"}'}","{'type': 'Point', 'coordinates': [-114.13465960657376, 51.12844482541283]}",2,2,272,59,4,
202,560 CRANSTON DR SE,CRANSTON,DR,SE,560,Parcel,-113.97603099371383,50.88261188509482,"{'latitude': '50.88261188509482', 'longitude': '-113.97603099371383', 'human_address': '{""address"": """", ""city"": """", ""state"": """", ""zip"": """"}'}","{'type': 'Point', 'coordinates': [-113.97603099371383, 50.88261188509482]}",3,4,294,82,8,
203,868 QUEENSLAND DR SE,QUEENSLAND,DR,SE,868,Parcel,-114.01738283498301,50.935251462039055,"{'latitude': '50.935251462039055', 'longitude': '-114.01738283498301', 'human_address': '{""address"": """", ""city"": """", ""state"": """", ""zip"": """"}'}","{'type': 'Point', 'coordinates': [-114.01738283498301, 50.935251462039055]}",3,6,215,141,13,
204,8 NEW BRIGHTON LI SE,NEW BRIGHTON,LI,SE,8,Parcel,-113.95580818783492,50.91616143300777,"{'latitude': '50.91616143300777', 'longitude': '-113.95580818783492', 'human_address': '{""address"": """", ""city"": """", ""state"": """", ""zip"": """"}'}","{'type': 'Point', 'coordinates': [-113.95580818783492, 50.91616143300777]}",3,4,139,247,8,
205,27 MALVERN PL NE,MALVERN,PL,NE,27,Parcel,-113.9391257526742,51.058978915218596,"{'latitude': '51.058978915218596', 'longitude': '-113.9391257526742', 'human_address': '{""address"": """", ""city"": """", ""state"": """", ""zip"": """"}'}","{'type': 'Point', 'coordinates': [-113.9391257526742, 51.058978915218596]}",4,12,33,246,3,
206,235 ROCKY VISTA CI NW,ROCKY VISTA,CI,NW,235,Parcel,-114.23671795576378,51.13866393604089,"{'latitude': '51.13866393604089', 'longitude': '-114.23671795576378', 'human_address': '{""address"": """", ""city"": """", ""state"": """", ""zip"": """"}'}","{'type': 'Point', 'coordinates': [-114.23671795576378, 51.13866393604089]}",2,13,193,165,9,
207,24 MARLYN CO NE,MARLYN,CO,NE,24,Parcel,-113.97776431400175,51.065765882165216,"{'latitude': '51.065765882165216', 'longitude': '-113.97776431400175', 'human_address': '{""address"": """", ""city"": """", ""state"": """", ""zip"": """"}'}","{'type': 'Point', 'coordinates': [-113.97776431400175, 51.065765882165216]}",4,12,77,80,3,
208,39 CAMBRIDGE RD NW,CAMBRIDGE,RD,NW,39,Parcel,-114.08540944781514,51.079587285751266,"{'latitude': '51.079587285751266', 'longitude': '-114.08540944781514', 'human_address': '{""address"": """", ""city"": """", ""state"": """", ""zip"": """"}'}","{'type': 'Point', 'coordinates': [-114.08540944781514, 51.079587285751266]}",2,7,276,66,4,
209,130 SKYVIEW POINT CR NE,SKYVIEW POINT,CR,NE,130,Parcel,-113.95256312228275,51.16423611848336,"{'latitude': '51.16423611848336', 'longitude': '-113.95256312228275', 'human_address': '{""address"": """", ""city"": """", ""state"": """", ""zip"": """"}'}","{'type': 'Point', 'coordinates': [-113.95256312228275, 51.16423611848336]}",4,11,12,132,1,
210,16 SKYVIEW RANCH GD NE,SKYVIEW RANCH,GD,NE,16,Parcel,-113.95992812590619,51.163605109866474,"{'latitude': '51.163605109866474', 'longitude': '-113.95992812590619', 'human_address': '{""address"": """", ""city"": """", ""state"": """", ""zip"": """"}'}","{'type': 'Point', 'coordinates': [-113.95992812590619, 51.163605109866474]}",4,11,12,132,1,
211,6050 8 AV SE,8,AV,SE,6050,Parcel,-113.94747379011709,51.04531108015595,"{'latitude': '51.04531108015595', 'longitude': '-113.94747379011709', 'human_address': '{""address"": """", ""city"": """", ""state"": """", ""zip"": """"}'}","{'type': 'Point', 'coordinates': [-113.94747379011709, 51.04531108015595]}",3,12,30,244,11,
212,4908 VICEROY PL NW,VICEROY,PL,NW,4908,Parcel,-114.1584629225317,51.09639107330319,"{'latitude': '51.09639107330319', 'longitude': '-114.1584629225317', 'human_address': '{""address"": """", ""city"": """", ""state"": """", ""zip"": """"}'}","{'type': 'Point', 'coordinates': [-114.1584629225317, 51.09639107330319]}",2,13,269,127,9,
213,319 RANCH ESTATES BA NW,RANCH ESTATES,BA,NW,319,Parcel,-114.17642286143645,51.12282364920218,"{'latitude': '51.12282364920218', 'longitude': '-114.17642286143645', 'human_address': '{""address"": """", ""city"": """", ""state"": """", ""zip"": """"}'}","{'type': 'Point', 'coordinates': [-114.17642286143645, 51.12282364920218]}",2,3,245,174,10,
214,56 COVEPARK PL NE,COVEPARK,PL,NE,56,Parcel,-114.05512676366126,51.166950836005775,"{'latitude': '51.166950836005775', 'longitude': '-114.05512676366126', 'human_address': '{""address"": """", ""city"": """", ""state"": """", ""zip"": """"}'}","{'type': 'Point', 'coordinates': [-114.05512676366126, 51.166950836005775]}",4,11,251,8,12,
215,185 CEDARDALE RD SW,CEDARDALE,RD,SW,185,Parcel,-114.13731934898308,50.95239648930359,"{'latitude': '50.95239648930359', 'longitude': '-114.13731934898308', 'human_address': '{""address"": """", ""city"": """", ""state"": """", ""zip"": """"}'}","{'type': 'Point', 'coordinates': [-114.13731934898308, 50.95239648930359]}",1,8,126,270,5,
216,1628 4A ST NW,4A,ST,NW,1628,Parcel,-114.07274346863483,51.06640411081751,"{'latitude': '51.06640411081751', 'longitude': '-114.07274346863483', 'human_address': '{""address"": """", ""city"": """", ""state"": """", ""zip"": """"}'}","{'type': 'Point', 'coordinates': [-114.07274346863483, 51.06640411081751]}",2,7,219,144,7,
217,162 TUSCANY RAVINE BA NW,TUSCANY RAVINE,BA,NW,162,Parcel,-114.23906992222578,51.11529745202784,"{'latitude': '51.11529745202784', 'longitude': '-114.23906992222578', 'human_address': '{""address"": """", ""city"": """", ""state"": """", ""zip"": """"}'}","{'type': 'Point', 'coordinates': [-114.23906992222578, 51.11529745202784]}",2,13,158,107,9,
218,167 SKYVIEW POINT RD NE,SKYVIEW POINT,RD,NE,167,Parcel,-113.94951318424967,51.16039180853136,"{'latitude': '51.16039180853136', 'longitude': '-113.94951318424967', 'human_address': '{""address"": """", ""city"": """", ""state"": """", ""zip"": """"}'}","{'type': 'Point', 'coordinates': [-113.94951318424967, 51.16039180853136]}",4,11,12,132,1,
219,92 COVINGTON RD NE,COVINGTON,RD,NE,92,Parcel,-114.03967944927403,51.15689613205432,"{'latitude': '51.15689613205432', 'longitude': '-114.03967944927403', 'human_address': '{""address"": """", ""city"": """", ""state"": """", ""zip"": """"}'}","{'type': 'Point', 'coordinates': [-114.03967944927403, 51.15689613205432]}",4,11,251,8,12,
220,4829 22 AV NW,22,AV,NW,4829,Parcel,-114.1590474080813,51.07689332767357,"{'latitude': '51.07689332767357', 'longitude': '-114.1590474080813', 'human_address': '{""address"": """", ""city"": """", ""state"": """", ""zip"": """"}'}","{'type': 'Point', 'coordinates': [-114.1590474080813, 51.07689332767357]}",2,13,24,239,7,
221,2518 4 AV NW,4,AV,NW,2518,Parcel,-114.11890686840052,51.05612987353057,"{'latitude': '51.05612987353057', 'longitude': '-114.11890686840052', 'human_address': '{""address"": """", ""city"": """", ""state"": """", ""zip"": """"}'}","{'type': 'Point', 'coordinates': [-114.11890686840052, 51.05612987353057]}",2,7,280,35,7,
222,48 STRATTON HILL RI SW,STRATTON HILL,RI,SW,48,Parcel,-114.17734160537479,51.04558715436712,"{'latitude': '51.04558715436712', 'longitude': '-114.17734160537479', 'human_address': '{""address"": """", ""city"": """", ""state"": """", ""zip"": """"}'}","{'type': 'Point', 'coordinates': [-114.17734160537479, 51.04558715436712]}",1,1,67,20,14,
223,263 25 AV NE,25,AV,NE,263,Parcel,-114.05646469385393,51.07504610797803,"{'latitude': '51.07504610797803', 'longitude': '-114.05646469385393', 'human_address': '{""address"": """", ""city"": """", ""state"": """", ""zip"": """"}'}","{'type': 'Point', 'coordinates': [-114.05646469385393, 51.07504610797803]}",4,10,69,70,7,
224,803 21 AV SE,21,AV,SE,803,Parcel,-114.04287692863663,51.03447422660985,"{'latitude': '51.03447422660985', 'longitude': '-114.04287692863663', 'human_address': '{""address"": """", ""city"": """", ""state"": """", ""zip"": """"}'}","{'type': 'Point', 'coordinates': [-114.04287692863663, 51.03447422660985]}",3,10,132,193,11,
225,331 RANCHVIEW ME NW,RANCHVIEW,ME,NW,331,Parcel,-114.1775483575681,51.12064545029747,"{'latitude': '51.12064545029747', 'longitude': '-114.1775483575681', 'human_address': '{""address"": """", ""city"": """", ""state"": """", ""zip"": """"}'}","{'type': 'Point', 'coordinates': [-114.1775483575681, 51.12064545029747]}",2,3,245,174,10,
226,4313 16 ST SW,16,ST,SW,4313,Parcel,-114.10068112781896,51.015513333292304,"{'latitude': '51.015513333292304', 'longitude': '-114.10068112781896', 'human_address': '{""address"": """", ""city"": """", ""state"": """", ""zip"": """"}'}","{'type': 'Point', 'coordinates': [-114.10068112781896, 51.015513333292304]}",1,8,200,267,2,
227,40 EVANSCOVE HT NW,EVANSCOVE,HT,NW,40,Parcel,-114.11514367787034,51.166840089397674,"{'latitude': '51.166840089397674', 'longitude': '-114.11514367787034', 'human_address': '{""address"": """", ""city"": """", ""state"": """", ""zip"": """"}'}","{'type': 'Point', 'coordinates': [-114.11514367787034, 51.166840089397674]}",2,3,237,92,10,
228,147 RIVERSIDE ME SE,RIVERSIDE,ME,SE,147,Parcel,-114.02714594520081,50.979970049995224,"{'latitude': '50.979970049995224', 'longitude': '-114.02714594520081', 'human_address': '{""address"": """", ""city"": """", ""state"": """", ""zip"": """"}'}","{'type': 'Point', 'coordinates': [-114.02714594520081, 50.979970049995224]}",3,10,19,234,8,
229,417 TEMPLEVIEW DR NE,TEMPLEVIEW,DR,NE,417,Parcel,-113.9423897529994,51.08271493375753,"{'latitude': '51.08271493375753', 'longitude': '-113.9423897529994', 'human_address': '{""address"": """", ""city"": """", ""state"": """", ""zip"": """"}'}","{'type': 'Point', 'coordinates': [-113.9423897529994, 51.08271493375753]}",4,9,22,237,3,
230,442 23 AV NE,23,AV,NE,442,Parcel,-114.05399677022379,51.0734695836336,"{'latitude': '51.0734695836336', 'longitude': '-114.05399677022379', 'human_address': '{""address"": """", ""city"": """", ""state"": """", ""zip"": """"}'}","{'type': 'Point', 'coordinates': [-114.05399677022379, 51.0734695836336]}",4,10,88,202,7,
231,2833 15 AV SE,15,AV,SE,2833,Parcel,-113.99362188539307,51.0394827781603,"{'latitude': '51.0394827781603', 'longitude': '-113.99362188539307', 'human_address': '{""address"": """", ""city"": """", ""state"": """", ""zip"": """"}'}","{'type': 'Point', 'coordinates': [-113.99362188539307, 51.0394827781603]}",3,12,121,264,11,
232,142 AUBURN MEADOWS AV SE,AUBURN MEADOWS,AV,SE,142,Parcel,-113.94748585852345,50.89673477292929,"{'latitude': '50.89673477292929', 'longitude': '-113.94748585852345', 'human_address': '{""address"": """", ""city"": """", ""state"": """", ""zip"": """"}'}","{'type': 'Point', 'coordinates': [-113.94748585852345, 50.89673477292929]}",3,4,95,217,8,
233,2260 MAHOGANY BV SE,MAHOGANY,BV,SE,2260,Parcel,-113.93674605736865,50.89800152783084,"{'latitude': '50.89800152783084', 'longitude': '-113.93674605736865', 'human_address': '{""address"": """", ""city"": """", ""state"": """", ""zip"": """"}'}","{'type': 'Point', 'coordinates': [-113.93674605736865, 50.89800152783084]}",3,4,116,258,8,
234,36 CASTLEPARK RD NE,CASTLEPARK,RD,NE,36,Parcel,-113.95426945057706,51.1059414478,"{'latitude': '51.1059414478', 'longitude': '-113.95426945057706', 'human_address': '{""address"": """", ""city"": """", ""state"": """", ""zip"": """"}'}","{'type': 'Point', 'coordinates': [-113.95426945057706, 51.1059414478]}",4,9,119,262,1,
235,26 COVEMEADOW MR NE,COVEMEADOW,MR,NE,26,Parcel,-114.06190262243126,51.16988917593918,"{'latitude': '51.16988917593918', 'longitude': '-114.06190262243126', 'human_address': '{""address"": """", ""city"": """", ""state"": """", ""zip"": """"}'}","{'type': 'Point', 'coordinates': [-114.06190262243126, 51.16988917593918]}",4,11,251,8,12,
236,128 MARTINWOOD WY NE,MARTINWOOD,WY,NE,128,Parcel,-113.94727023681362,51.115977941657746,"{'latitude': '51.115977941657746', 'longitude': '-113.94727023681362', 'human_address': '{""address"": """", ""city"": """", ""state"": """", ""zip"": """"}'}","{'type': 'Point', 'coordinates': [-113.94727023681362, 51.115977941657746]}",4,9,180,184,1,
237,2715 17 ST SE,17,ST,SE,2715,Parcel,-114.01931862960627,51.029886632750596,"{'latitude': '51.029886632750596', 'longitude': '-114.01931862960627', 'human_address': '{""address"": """", ""city"": """", ""state"": """", ""zip"": """"}'}","{'type': 'Point', 'coordinates': [-114.01931862960627, 51.029886632750596]}",3,10,54,54,11,
238,403 BRIDLEWOOD CO SW,BRIDLEWOOD,CO,SW,403,Parcel,-114.10356829722937,50.89530389272014,"{'latitude': '50.89530389272014', 'longitude': '-114.10356829722937', 'human_address': '{""address"": """", ""city"": """", ""state"": """", ""zip"": """"}'}","{'type': 'Point', 'coordinates': [-114.10356829722937, 50.89530389272014]}",1,5,138,283,6,
239,69 MARTINVALLEY PL NE,MARTINVALLEY,PL,NE,69,Parcel,-113.95772219685387,51.12116714812835,"{'latitude': '51.12116714812835', 'longitude': '-113.95772219685387', 'human_address': '{""address"": """", ""city"": """", ""state"": """", ""zip"": """"}'}","{'type': 'Point', 'coordinates': [-113.95772219685387, 51.12116714812835]}",4,9,180,184,1,
240,16 MOUNTAIN PARK CI SE,MOUNTAIN PARK,CI,SE,16,Parcel,-113.98733850620502,50.9116139446276,"{'latitude': '50.9116139446276', 'longitude': '-113.98733850620502', 'human_address': '{""address"": """", ""city"": """", ""state"": """", ""zip"": """"}'}","{'type': 'Point', 'coordinates': [-113.98733850620502, 50.9116139446276]}",3,4,296,89,13,
241,402 LAKE SIMCOE CR SE,LAKE SIMCOE,CR,SE,402,Parcel,-114.06344503149718,50.93271605577284,"{'latitude': '50.93271605577284', 'longitude': '-114.06344503149718', 'human_address': '{""address"": """", ""city"": """", ""state"": """", ""zip"": """"}'}","{'type': 'Point', 'coordinates': [-114.06344503149718, 50.93271605577284]}",3,6,267,123,13,
242,539 RANCH ESTATES PL NW,RANCH ESTATES,PL,NW,539,Parcel,-114.17306070814931,51.11862614940011,"{'latitude': '51.11862614940011', 'longitude': '-114.17306070814931', 'human_address': '{""address"": """", ""city"": """", ""state"": """", ""zip"": """"}'}","{'type': 'Point', 'coordinates': [-114.17306070814931, 51.11862614940011]}",2,3,245,174,10,
243,367 SCENIC ACRES DR NW,SCENIC ACRES,DR,NW,367,Parcel,-114.220079761365,51.11176046957223,"{'latitude': '51.11176046957223', 'longitude': '-114.220079761365', 'human_address': '{""address"": """", ""city"": """", ""state"": """", ""zip"": """"}'}","{'type': 'Point', 'coordinates': [-114.220079761365, 51.11176046957223]}",2,13,148,48,9,
244,6020 THORNBANK DR NW,THORNBANK,DR,NW,6020,Parcel,-114.06714231400626,51.10629193087724,"{'latitude': '51.10629193087724', 'longitude': '-114.06714231400626', 'human_address': '{""address"": """", ""city"": """", ""state"": """", ""zip"": """"}'}","{'type': 'Point', 'coordinates': [-114.06714231400626, 51.10629193087724]}",2,2,192,164,4,
245,79 SAGE MEADOWS CI NW,SAGE MEADOWS,CI,NW,79,Parcel,-114.13110578926815,51.17460463871295,"{'latitude': '51.17460463871295', 'longitude': '-114.13110578926815', 'human_address': '{""address"": """", ""city"": """", ""state"": """", ""zip"": """"}'}","{'type': 'Point', 'coordinates': [-114.13110578926815, 51.17460463871295]}",2,3,265,169,10,
246,4203 MARLBOROUGH DR NE,MARLBOROUGH,DR,NE,4203,Parcel,-113.97158486334412,51.05940947776444,"{'latitude': '51.05940947776444', 'longitude': '-113.97158486334412', 'human_address': '{""address"": """", ""city"": """", ""state"": """", ""zip"": """"}'}","{'type': 'Point', 'coordinates': [-113.97158486334412, 51.05940947776444]}",4,12,77,80,3,
247,163 SILVERADO PLAINS CL SW,SILVERADO PLAINS,CL,SW,163,Parcel,-114.07460231697038,50.88054237326368,"{'latitude': '50.88054237326368', 'longitude': '-114.07460231697038', 'human_address': '{""address"": """", ""city"": """", ""state"": """", ""zip"": """"}'}","{'type': 'Point', 'coordinates': [-114.07460231697038, 50.88054237326368]}",1,6,134,252,6,
248,67 CARRINGTON CR NW,CARRINGTON,CR,NW,67,Parcel,-114.08770780091075,51.18027266753234,"{'latitude': '51.18027266753234', 'longitude': '-114.08770780091075', 'human_address': '{""address"": """", ""city"": """", ""state"": """", ""zip"": """"}'}","{'type': 'Point', 'coordinates': [-114.08770780091075, 51.18027266753234]}",2,11,242,9,12,
249,155 VALLEY BROOK CO NW,VALLEY BROOK,CO,NW,155,Parcel,-114.23972499521602,51.09133448057921,"{'latitude': '51.09133448057921', 'longitude': '-114.23972499521602', 'human_address': '{""address"": """", ""city"": """", ""state"": """", ""zip"": """"}'}","{'type': 'Point', 'coordinates': [-114.23972499521602, 51.09133448057921]}",2,13,47,175,9,
250,139 HAWKVIEW MANOR CI NW,HAWKVIEW MANOR,CI,NW,139,Parcel,-114.1712936859004,51.12746424435072,"{'latitude': '51.12746424435072', 'longitude': '-114.1712936859004', 'human_address': '{""address"": """", ""city"": """", ""state"": """", ""zip"": """"}'}","{'type': 'Point', 'coordinates': [-114.1712936859004, 51.12746424435072]}",2,3,248,176,10,
251,320 BLACKTHORN RD NW,BLACKTHORN,RD,NW,320,Parcel,-114.0684170736914,51.10733285733401,"{'latitude': '51.10733285733401', 'longitude': '-114.0684170736914', 'human_address': '{""address"": """", ""city"": """", ""state"": """", ""zip"": """"}'}","{'type': 'Point', 'coordinates': [-114.0684170736914, 51.10733285733401]}",2,2,192,164,4,
252,115 HAMPSTEAD GR NW,HAMPSTEAD,GR,NW,115,Parcel,-114.13904928968039,51.14228895635936,"{'latitude': '51.14228895635936', 'longitude': '-114.13904928968039', 'human_address': '{""address"": """", ""city"": """", ""state"": """", ""zip"": """"}'}","{'type': 'Point', 'coordinates': [-114.13904928968039, 51.14228895635936]}",2,3,286,27,10,
253,26 BRIDLERIDGE RD SW,BRIDLERIDGE,RD,SW,26,Parcel,-114.11120664444552,50.89665946707617,"{'latitude': '50.89665946707617', 'longitude': '-114.11120664444552', 'human_address': '{""address"": """", ""city"": """", ""state"": """", ""zip"": """"}'}","{'type': 'Point', 'coordinates': [-114.11120664444552, 50.89665946707617]}",1,5,138,283,6,
254,1411 20 AV NW,20,AV,NW,1411,Parcel,-114.09295036883584,51.07041333652608,"{'latitude': '51.07041333652608', 'longitude': '-114.09295036883584', 'human_address': '{""address"": """", ""city"": """", ""state"": """", ""zip"": """"}'}","{'type': 'Point', 'coordinates': [-114.09295036883584, 51.07041333652608]}",2,7,63,51,7,
255,15 TUSCANY SPRINGS WY NW,TUSCANY SPRINGS,WY,NW,15,Parcel,-114.24546184823171,51.132881352368464,"{'latitude': '51.132881352368464', 'longitude': '-114.24546184823171', 'human_address': '{""address"": """", ""city"": """", ""state"": """", ""zip"": """"}'}","{'type': 'Point', 'coordinates': [-114.24546184823171, 51.132881352368464]}",2,13,158,107,9,
256,48 INVERNESS GV SE,INVERNESS,GV,SE,48,Parcel,-113.97352323822595,50.91243916206063,"{'latitude': '50.91243916206063', 'longitude': '-113.97352323822595', 'human_address': '{""address"": """", ""city"": """", ""state"": """", ""zip"": """"}'}","{'type': 'Point', 'coordinates': [-113.97352323822595, 50.91243916206063]}",3,4,46,287,8,
257,76 FALSHIRE CL NE,FALSHIRE,CL,NE,76,Parcel,-113.94486424362462,51.10737104987123,"{'latitude': '51.10737104987123', 'longitude': '-113.94486424362462', 'human_address': '{""address"": """", ""city"": """", ""state"": """", ""zip"": """"}'}","{'type': 'Point', 'coordinates': [-113.94486424362462, 51.10737104987123]}",4,9,56,278,1,
258,11444 ROCKY RIDGE RD NW,ROCKY RIDGE,RD,NW,11444,Parcel,-114.23404263708476,51.16005621303498,"{'latitude': '51.16005621303498', 'longitude': '-114.23404263708476', 'human_address': '{""address"": """", ""city"": """", ""state"": """", ""zip"": """"}'}","{'type': 'Point', 'coordinates': [-114.23404263708476, 51.16005621303498]}",2,3,191,131,9,
259,35 MT ABERDEEN GV SE,MT ABERDEEN,GV,SE,35,Parcel,-113.97949406972235,50.930206772825656,"{'latitude': '50.930206772825656', 'longitude': '-113.97949406972235', 'human_address': '{""address"": """", ""city"": """", ""state"": """", ""zip"": """"}'}","{'type': 'Point', 'coordinates': [-113.97949406972235, 50.930206772825656]}",3,4,296,89,13,
260,52 WOODGROVE CR SW,WOODGROVE,CR,SW,52,Parcel,-114.10021807107563,50.939452035184324,"{'latitude': '50.939452035184324', 'longitude': '-114.10021807107563', 'human_address': '{""address"": """", ""city"": """", ""state"": """", ""zip"": """"}'}","{'type': 'Point', 'coordinates': [-114.10021807107563, 50.939452035184324]}",1,5,216,142,6,
261,114 ROYAL ELM WY NW,ROYAL ELM,WY,NW,114,Parcel,-114.23188305875863,51.141683438657424,"{'latitude': '51.141683438657424', 'longitude': '-114.23188305875863', 'human_address': '{""address"": """", ""city"": """", ""state"": """", ""zip"": """"}'}","{'type': 'Point', 'coordinates': [-114.23188305875863, 51.141683438657424]}",2,3,252,13,9,
262,86 SUNCANYON PA SE,SUNCANYON,PA,SE,86,Parcel,-114.02553417617061,50.90505392649093,"{'latitude': '50.90505392649093', 'longitude': '-114.02553417617061', 'human_address': '{""address"": """", ""city"": """", ""state"": """", ""zip"": """"}'}","{'type': 'Point', 'coordinates': [-114.02553417617061, 50.90505392649093]}",3,6,52,128,13,
263,72 SADDLEFIELD RD NE,SADDLEFIELD,RD,NE,72,Parcel,-113.93568555878512,51.129168708676815,"{'latitude': '51.129168708676815', 'longitude': '-113.93568555878512', 'human_address': '{""address"": """", ""city"": """", ""state"": """", ""zip"": """"}'}","{'type': 'Point', 'coordinates': [-113.93568555878512, 51.129168708676815]}",4,11,2,143,1,
264,26 CORNERSTONE RD NE,CORNERSTONE,RD,NE,26,Parcel,-113.9394494245048,51.15847675157832,"{'latitude': '51.15847675157832', 'longitude': '-113.9394494245048', 'human_address': '{""address"": """", ""city"": """", ""state"": """", ""zip"": """"}'}","{'type': 'Point', 'coordinates': [-113.9394494245048, 51.15847675157832]}",4,11,11,133,1,
265,123 PENMEADOWS CL SE,PENMEADOWS,CL,SE,123,Parcel,-113.95227321251316,51.0463329157148,"{'latitude': '51.0463329157148', 'longitude': '-113.95227321251316', 'human_address': '{""address"": """", ""city"": """", ""state"": """", ""zip"": """"}'}","{'type': 'Point', 'coordinates': [-113.95227321251316, 51.0463329157148]}",3,12,30,244,11,
266,37 SILVER SPRINGS DR NW,SILVER SPRINGS,DR,NW,37,Parcel,-114.18533840449328,51.10572063479413,"{'latitude': '51.10572063479413', 'longitude': '-114.18533840449328', 'human_address': '{""address"": """", ""city"": """", ""state"": """", ""zip"": """"}'}","{'type': 'Point', 'coordinates': [-114.18533840449328, 51.10572063479413]}",2,13,147,12,9,
267,256 MIDLAWN CL SE,MIDLAWN,CL,SE,256,Parcel,-114.0643069982672,50.91882325678474,"{'latitude': '50.91882325678474', 'longitude': '-114.0643069982672', 'human_address': '{""address"": """", ""city"": """", ""state"": """", ""zip"": """"}'}","{'type': 'Point', 'coordinates': [-114.0643069982672, 50.91882325678474]}",3,6,263,161,13,
268,1539 PANATELLA BV NW,PANATELLA,BV,NW,1539,Parcel,-114.08120363378218,51.1701910163459,"{'latitude': '51.1701910163459', 'longitude': '-114.08120363378218', 'human_address': '{""address"": """", ""city"": """", ""state"": """", ""zip"": """"}'}","{'type': 'Point', 'coordinates': [-114.08120363378218, 51.1701910163459]}",2,11,235,95,12,
269,139 CITADEL ACRES CL NW,CITADEL ACRES,CL,NW,139,Parcel,-114.19590366352209,51.14794103814629,"{'latitude': '51.14794103814629', 'longitude': '-114.19590366352209', 'human_address': '{""address"": """", ""city"": """", ""state"": """", ""zip"": """"}'}","{'type': 'Point', 'coordinates': [-114.19590366352209, 51.14794103814629]}",2,3,247,177,10,
270,28 SANDERLING RI NW,SANDERLING,RI,NW,28,Parcel,-114.08956441851193,51.13705471020189,"{'latitude': '51.13705471020189', 'longitude': '-114.08956441851193', 'human_address': '{""address"": """", ""city"": """", ""state"": """", ""zip"": """"}'}","{'type': 'Point', 'coordinates': [-114.08956441851193, 51.13705471020189]}",2,2,270,121,4,
271,3 EDGEWOOD PL NW,EDGEWOOD,PL,NW,3,Parcel,-114.15444213119392,51.123686363163955,"{'latitude': '51.123686363163955', 'longitude': '-114.15444213119392', 'human_address': '{""address"": """", ""city"": """", ""state"": """", ""zip"": """"}'}","{'type': 'Point', 'coordinates': [-114.15444213119392, 51.123686363163955]}",2,2,272,59,4,
272,153 EVANSMEADE CI NW,EVANSMEADE,CI,NW,153,Parcel,-114.11479723585842,51.16378925059032,"{'latitude': '51.16378925059032', 'longitude': '-114.11479723585842', 'human_address': '{""address"": """", ""city"": """", ""state"": """", ""zip"": """"}'}","{'type': 'Point', 'coordinates': [-114.11479723585842, 51.16378925059032]}",2,3,237,92,10,
273,147 EVERGLADE WY SW,EVERGLADE,WY,SW,147,Parcel,-114.12833026833171,50.92271173008049,"{'latitude': '50.92271173008049', 'longitude': '-114.12833026833171', 'human_address': '{""address"": """", ""city"": """", ""state"": """", ""zip"": """"}'}","{'type': 'Point', 'coordinates': [-114.12833026833171, 50.92271173008049]}",1,5,39,257,6,
274,30 MASTERS AV SE,MASTERS,AV,SE,30,Parcel,-113.92375462304044,50.898524174157124,"{'latitude': '50.898524174157124', 'longitude': '-113.92375462304044', 'human_address': '{""address"": """", ""city"": """", ""state"": """", ""zip"": """"}'}","{'type': 'Point', 'coordinates': [-113.92375462304044, 50.898524174157124]}",3,4,116,258,8,
275,1448 44 ST SW,44,ST,SW,1448,Parcel,-114.15102361360928,51.03985569344926,"{'latitude': '51.03985569344926', 'longitude': '-114.15102361360928', 'human_address': '{""address"": """", ""city"": """", ""state"": """", ""zip"": """"}'}","{'type': 'Point', 'coordinates': [-114.15102361360928, 51.03985569344926]}",1,14,281,36,2,
276,174 COPPERPOND ST SE,COPPERPOND,ST,SE,174,Parcel,-113.9156471052686,50.91600854137018,"{'latitude': '50.91600854137018', 'longitude': '-113.9156471052686', 'human_address': '{""address"": """", ""city"": """", ""state"": """", ""zip"": """"}'}","{'type': 'Point', 'coordinates': [-113.9156471052686, 50.91600854137018]}",3,4,96,230,8,
277,191 EVANSCREST PL NW,EVANSCREST,PL,NW,191,Parcel,-114.10961362432502,51.1821105325272,"{'latitude': '51.1821105325272', 'longitude': '-114.10961362432502', 'human_address': '{""address"": """", ""city"": """", ""state"": """", ""zip"": """"}'}","{'type': 'Point', 'coordinates': [-114.10961362432502, 51.1821105325272]}",2,3,237,92,10,
278,368 WHITESIDE RD NE,WHITESIDE,RD,NE,368,Parcel,-113.96005135600672,51.09068570171113,"{'latitude': '51.09068570171113', 'longitude': '-113.96005135600672', 'human_address': '{""address"": """", ""city"": """", ""state"": """", ""zip"": """"}'}","{'type': 'Point', 'coordinates': [-113.96005135600672, 51.09068570171113]}",4,9,145,251,3,
279,121 SIGNATURE WY SW,SIGNATURE,WY,SW,121,Parcel,-114.17480209904717,51.03513702617259,"{'latitude': '51.03513702617259', 'longitude': '-114.17480209904717', 'human_address': '{""address"": """", ""city"": """", ""state"": """", ""zip"": """"}'}","{'type': 'Point', 'coordinates': [-114.17480209904717, 51.03513702617259]}",1,1,278,65,14,
280,35 MT APEX GR SE,MT APEX,GR,SE,35,Parcel,-113.97917403616952,50.924155325664216,"{'latitude': '50.924155325664216', 'longitude': '-113.97917403616952', 'human_address': '{""address"": """", ""city"": """", ""state"": """", ""zip"": """"}'}","{'type': 'Point', 'coordinates': [-113.97917403616952, 50.924155325664216]}",3,4,296,89,13,
281,5528 FORAND ST SW,FORAND,ST,SW,5528,Parcel,-114.12058494213738,51.004194321515534,"{'latitude': '51.004194321515534', 'longitude': '-114.12058494213738', 'human_address': '{""address"": """", ""city"": """", ""state"": """", ""zip"": """"}'}","{'type': 'Point', 'coordinates': [-114.12058494213738, 51.004194321515534]}",1,8,210,196,2,
282,139 MIDLAND PL SE,MIDLAND,PL,SE,139,Parcel,-114.04446978881211,50.90934927399159,"{'latitude': '50.90934927399159', 'longitude': '-114.04446978881211', 'human_address': '{""address"": """", ""city"": """", ""state"": """", ""zip"": """"}'}","{'type': 'Point', 'coordinates': [-114.04446978881211, 50.90934927399159]}",3,6,263,161,13,
283,1392 FALCONRIDGE DR NE,FALCONRIDGE,DR,NE,1392,Parcel,-113.94132237348671,51.100366430601376,"{'latitude': '51.100366430601376', 'longitude': '-113.94132237348671', 'human_address': '{""address"": """", ""city"": """", ""state"": """", ""zip"": """"}'}","{'type': 'Point', 'coordinates': [-113.94132237348671, 51.100366430601376]}",4,9,56,278,1,
284,151 WATERLOO DR SW,WATERLOO,DR,SW,151,Parcel,-114.14674831393337,51.0497822427114,"{'latitude': '51.0497822427114', 'longitude': '-114.14674831393337', 'human_address': '{""address"": """", ""city"": """", ""state"": """", ""zip"": """"}'}","{'type': 'Point', 'coordinates': [-114.14674831393337, 51.0497822427114]}",1,14,170,73,2,
285,3 CASTLEBROOK WY NE,CASTLEBROOK,WY,NE,3,Parcel,-113.96301146842117,51.1065401842993,"{'latitude': '51.1065401842993', 'longitude': '-113.96301146842117', 'human_address': '{""address"": """", ""city"": """", ""state"": """", ""zip"": """"}'}","{'type': 'Point', 'coordinates': [-113.96301146842117, 51.1065401842993]}",4,9,119,262,1,
286,56 SCENIC RI NW,SCENIC,RI,NW,56,Parcel,-114.20852904410312,51.11788472934771,"{'latitude': '51.11788472934771', 'longitude': '-114.20852904410312', 'human_address': '{""address"": """", ""city"": """", ""state"": """", ""zip"": """"}'}","{'type': 'Point', 'coordinates': [-114.20852904410312, 51.11788472934771]}",2,13,148,48,9,
287,660 STRATHCONA DR SW,STRATHCONA,DR,SW,660,Parcel,-114.16837032870727,51.044277339104525,"{'latitude': '51.044277339104525', 'longitude': '-114.16837032870727', 'human_address': '{""address"": """", ""city"": """", ""state"": """", ""zip"": """"}'}","{'type': 'Point', 'coordinates': [-114.16837032870727, 51.044277339104525]}",1,1,67,20,14,
288,105 SIGNATURE WY SW,SIGNATURE,WY,SW,105,Parcel,-114.17380636301458,51.03521135524126,"{'latitude': '51.03521135524126', 'longitude': '-114.17380636301458', 'human_address': '{""address"": """", ""city"": """", ""state"": """", ""zip"": """"}'}","{'type': 'Point', 'coordinates': [-114.17380636301458, 51.03521135524126]}",1,1,278,65,14,
289,87 TUSCARORA CL NW,TUSCARORA,CL,NW,87,Parcel,-114.23489574743634,51.126536702178164,"{'latitude': '51.126536702178164', 'longitude': '-114.23489574743634', 'human_address': '{""address"": """", ""city"": """", ""state"": """", ""zip"": """"}'}","{'type': 'Point', 'coordinates': [-114.23489574743634, 51.126536702178164]}",2,13,158,107,9,
290,72 HAWKFIELD CR NW,HAWKFIELD,CR,NW,72,Parcel,-114.19039086722428,51.130505521625665,"{'latitude': '51.130505521625665', 'longitude': '-114.19039086722428', 'human_address': '{""address"": """", ""city"": """", ""state"": """", ""zip"": """"}'}","{'type': 'Point', 'coordinates': [-114.19039086722428, 51.130505521625665]}",2,3,248,176,10,
291,50 LAKE CHRISTINA CL SE,LAKE CHRISTINA,CL,SE,50,Parcel,-114.0388031511046,50.94073356356459,"{'latitude': '50.94073356356459', 'longitude': '-114.0388031511046', 'human_address': '{""address"": """", ""city"": """", ""state"": """", ""zip"": """"}'}","{'type': 'Point', 'coordinates': [-114.0388031511046, 50.94073356356459]}",3,6,267,123,13,
292,1207 NEW BRIGHTON PA SE,NEW BRIGHTON,PA,SE,1207,Parcel,-113.9393717848991,50.91441800938166,"{'latitude': '50.91441800938166', 'longitude': '-113.9393717848991', 'human_address': '{""address"": """", ""city"": """", ""state"": """", ""zip"": """"}'}","{'type': 'Point', 'coordinates': [-113.9393717848991, 50.91441800938166]}",3,4,139,247,8,
293,43 HAMPSTEAD WY NW,HAMPSTEAD,WY,NW,43,Parcel,-114.14498395225128,51.1398765678646,"{'latitude': '51.1398765678646', 'longitude': '-114.14498395225128', 'human_address': '{""address"": """", ""city"": """", ""state"": """", ""zip"": """"}'}","{'type': 'Point', 'coordinates': [-114.14498395225128, 51.1398765678646]}",2,3,286,27,10,
